{
  "elements": [
    {
      "lat": 41.0113158290001, 
      "lon": 28.8313084170001, 
      "name": "Kuba Camii"
    }, 
    {
      "lat": 40.960498005, 
      "lon": 28.8313295470001, 
      "name": "Mecidiye Camii"
    }, 
    {
      "lat": 41.0203267050001, 
      "lon": 29.0916001470001, 
      "name": "Nam\u0131k Kemal Hz.\u00d6mer Camii"
    }, 
    {
      "lat": 41.203907041, 
      "lon": 28.635837741, 
      "name": "Dursunk\u00f6y Camii"
    }, 
    {
      "lat": 41.015109984, 
      "lon": 29.068776901, 
      "name": "\u00c7ilehane Camii"
    }, 
    {
      "lat": 41.180625622, 
      "lon": 28.7616265200001, 
      "name": "Bo\u011fazk\u00f6y Mevlana Camii"
    }, 
    {
      "lat": 40.9361793420001, 
      "lon": 29.2827083170001, 
      "name": "Habe\u015fi Camii"
    }, 
    {
      "lat": 40.9818479750001, 
      "lon": 28.888546782, 
      "name": "S\u00fcmerbank M\u00fcessese Camii"
    }, 
    {
      "lat": 40.9968021460001, 
      "lon": 29.0922773030001, 
      "name": "Yunus Emre Camii"
    }, 
    {
      "lat": 41.060713428, 
      "lon": 28.7272535330001, 
      "name": "\u015e\u00fckr\u00fcye Yolu\u00e7 Camii"
    }, 
    {
      "lat": 41.0226520690001, 
      "lon": 29.0088165010001, 
      "name": "Ayazma Camii"
    }, 
    {
      "lat": 41.026279506, 
      "lon": 29.022853771, 
      "name": "Fevziye Hatun Camii"
    }, 
    {
      "lat": 41.0275247760001, 
      "lon": 29.0203955710001, 
      "name": "M\u00fcderris Abdul Baki Camii"
    }, 
    {
      "lat": 41.0341417280001, 
      "lon": 29.102961056, 
      "name": "Kaz\u0131m Karabekir Berat Camii"
    }, 
    {
      "lat": 41.032774192, 
      "lon": 29.061820321, 
      "name": "Beylerbey\u0131 Mehmet A\u011fa Camii"
    }, 
    {
      "lat": 41.017337255, 
      "lon": 29.081472354, 
      "name": "S\u00f6\u011f\u00fctl\u00fc\u00e7ay\u0131r Camii"
    }, 
    {
      "lat": 41.013784586, 
      "lon": 29.125565346, 
      "name": "\u00c7akmak \u00c7aml\u0131k Camii"
    }, 
    {
      "lat": 41.0175075280001, 
      "lon": 29.0855460500001, 
      "name": "Birlik Camii"
    }, 
    {
      "lat": 41.0053785700001, 
      "lon": 28.907475076, 
      "name": "Tepeba\u011f Dutluk Camii"
    }, 
    {
      "lat": 40.9805821260001, 
      "lon": 28.823251101, 
      "name": "Havaliman\u0131 Camii"
    }, 
    {
      "lat": 41.055330107, 
      "lon": 28.812083596, 
      "name": "H. Salih \u00c7elik Ba\u015f Camii"
    }, 
    {
      "lat": 41.1881591910001, 
      "lon": 28.555447798, 
      "name": "Babanakka\u015f Camii"
    }, 
    {
      "lat": 41.1046931430001, 
      "lon": 28.786645036, 
      "name": "Hoca Ahmet Yesevi Camii"
    }, 
    {
      "lat": 40.9898299280001, 
      "lon": 29.090230666, 
      "name": "Yeni Sahra Merkez Camii"
    }, 
    {
      "lat": 41.0906287610001, 
      "lon": 28.9965796110001, 
      "name": "Sanayi Mahallesi Merkez Camii"
    }, 
    {
      "lat": 41.0225678630001, 
      "lon": 28.9210801340001, 
      "name": "Takkeci \u0130brahim \u00c7avu\u015f Camii"
    }, 
    {
      "lat": 41.000398187, 
      "lon": 28.853327414, 
      "name": "Siyavu\u015fpa\u015fa Merkez Camii"
    }, 
    {
      "lat": 41.0278735410001, 
      "lon": 29.148098352, 
      "name": "A\u015fa\u011f\u0131 Dudullu F\u0131rat Camii"
    }, 
    {
      "lat": 41.034101585, 
      "lon": 29.0763671020001, 
      "name": "H.Ebubekir Camii"
    }, 
    {
      "lat": 41.054332307, 
      "lon": 28.8513069680001, 
      "name": "Hz.\u00d6mer Camii"
    }, 
    {
      "lat": 41.190342005, 
      "lon": 28.7202502850001, 
      "name": "Ta\u015foluk Ye\u015fil Camii"
    }, 
    {
      "lat": 40.99929553, 
      "lon": 28.836574867, 
      "name": "Hac\u0131 Veyis Turan Camii"
    }, 
    {
      "lat": 41.0456445190001, 
      "lon": 28.858845741, 
      "name": "\u0130brahim Ethem Camii"
    }, 
    {
      "lat": 41.0482255570001, 
      "lon": 29.2391109800001, 
      "name": "Alemda\u011f Beldesi Camii"
    }, 
    {
      "lat": 40.8313089710001, 
      "lon": 29.321785907, 
      "name": "\u0130stasyon Yeni Camii"
    }, 
    {
      "lat": 41.0132211370001, 
      "lon": 28.9689471660001, 
      "name": "\u00c7akmak\u00e7\u0131lar Camii"
    }, 
    {
      "lat": 41.0326806050001, 
      "lon": 28.8900732330001, 
      "name": "Davutpa\u015fa Camii"
    }, 
    {
      "lat": 41.0295060190001, 
      "lon": 28.9191728870001, 
      "name": "Eminta\u015f \u0130ki Sanayi Site Camii"
    }, 
    {
      "lat": 41.051659177, 
      "lon": 28.9031608440001, 
      "name": "Kartaltepe Ye\u015fil Camii"
    }, 
    {
      "lat": 40.969136817, 
      "lon": 29.2231867360001, 
      "name": "Samand\u0131ra Mevlana Camii"
    }, 
    {
      "lat": 41.0150478240001, 
      "lon": 28.923074765, 
      "name": "Karaa\u011fa\u00e7 Melek Hatun Camii"
    }, 
    {
      "lat": 41.134895, 
      "lon": 29.0943098600001, 
      "name": "Beykoz \u015eahinkaya Meryem Hatun Camii"
    }, 
    {
      "lat": 41.033210932, 
      "lon": 28.913164276, 
      "name": "Hoca Hayri Efendi Merkez Camii"
    }, 
    {
      "lat": 40.930067712, 
      "lon": 29.126720463, 
      "name": "Kuba Camii"
    }, 
    {
      "lat": 40.998351052, 
      "lon": 28.7644661320001, 
      "name": "\u015eevki Korkmaz Camii"
    }, 
    {
      "lat": 40.9133575610001, 
      "lon": 29.278717785, 
      "name": "\u015eeyhli S\u00fcl\u00fcntepe Camii"
    }, 
    {
      "lat": 40.870837507, 
      "lon": 29.273399028, 
      "name": "\u00c7\u0131nardibi Camii"
    }, 
    {
      "lat": 40.9147071880001, 
      "lon": 29.2676534510001, 
      "name": "Aydos \u00c7ank\u0131r\u0131l\u0131lar Camii"
    }, 
    {
      "lat": 40.9070649510001, 
      "lon": 29.2840692890001, 
      "name": "\u015eeyhli Merkez Camii"
    }, 
    {
      "lat": 41.083362655, 
      "lon": 28.916503345, 
      "name": "Kaz\u0131mkarabekir Hay\u0131rl\u0131 O\u011flu Camii"
    }, 
    {
      "lat": 41.0973416080001, 
      "lon": 28.9979603780001, 
      "name": "Barbaros Camii"
    }, 
    {
      "lat": 40.9621136590001, 
      "lon": 29.241250199, 
      "name": "Samand\u0131ra Seyit Ahmet Errufa Camii"
    }, 
    {
      "lat": 40.9069337080001, 
      "lon": 29.180782879, 
      "name": "Elmal\u0131 Camii"
    }, 
    {
      "lat": 41.1311785680001, 
      "lon": 29.0400811820001, 
      "name": "Ferahevler Camii"
    }, 
    {
      "lat": 41.0511939370001, 
      "lon": 28.956579705, 
      "name": "Hz. Ali Camii"
    }, 
    {
      "lat": 41.091422252, 
      "lon": 28.75373123, 
      "name": "Bilal-\u0130 Habe\u015f Camii"
    }, 
    {
      "lat": 40.9043941080001, 
      "lon": 29.247510302, 
      "name": "\u0130mam-\u0130 Azam Camii"
    }, 
    {
      "lat": 41.100451981, 
      "lon": 28.9060096100001, 
      "name": "Hediye Han\u0131m Camii"
    }, 
    {
      "lat": 41.020570961, 
      "lon": 29.1410008890001, 
      "name": "A\u015fa\u011f\u0131 Dudullu Birlik Camii"
    }, 
    {
      "lat": 41.0385594700001, 
      "lon": 29.0879813060001, 
      "name": "Veysel Karani Camii"
    }, 
    {
      "lat": 41.0005703420001, 
      "lon": 28.8685246250001, 
      "name": "\u00c7inili Camii"
    }, 
    {
      "lat": 41.0374938050001, 
      "lon": 29.104593412, 
      "name": "Kaz\u0131m Karabekir Orta Camii"
    }, 
    {
      "lat": 41.1799217830001, 
      "lon": 28.7626897280001, 
      "name": "L\u00fctfullah Sami Hoca  Camii"
    }, 
    {
      "lat": 41.2187629420001, 
      "lon": 28.7032690680001, 
      "name": "Ta\u015foluk Mehmet Akif Ersoy Camii"
    }, 
    {
      "lat": 41.0516624410001, 
      "lon": 29.068047279, 
      "name": "\u00dcsk\u00fcdar \u00c7engelk\u00f6y Camii"
    }, 
    {
      "lat": 41.0034369730001, 
      "lon": 28.84215965, 
      "name": "Hac\u0131pa\u015fa Camii"
    }, 
    {
      "lat": 41.0412485370001, 
      "lon": 28.8390314010001, 
      "name": "\u0130mam-\u0131 Gazali Camiii"
    }, 
    {
      "lat": 41.017640068, 
      "lon": 29.1773011340001, 
      "name": "Kemerdere Camii"
    }, 
    {
      "lat": 41.095290924, 
      "lon": 28.810466983, 
      "name": "Sar\u0131 Saltuk Camii"
    }, 
    {
      "lat": 41.028163239, 
      "lon": 29.1029846340001, 
      "name": "Yamanevler Camii"
    }, 
    {
      "lat": 41.310504392, 
      "lon": 28.6122882540001, 
      "name": "Balaban K\u00f6y\u00fc Camii"
    }, 
    {
      "lat": 41.064672122, 
      "lon": 28.827178454, 
      "name": "\u0130sto\u00e7 Camii"
    }, 
    {
      "lat": 40.9739749130001, 
      "lon": 29.124056765, 
      "name": "\u015eafak Camii"
    }, 
    {
      "lat": 41.002620989, 
      "lon": 28.834522845, 
      "name": "Yenibosna Merkez Camii"
    }, 
    {
      "lat": 40.955088027, 
      "lon": 29.093871554, 
      "name": "Bostanc\u0131 Kulo\u011flu Camii"
    }, 
    {
      "lat": 41.019800015, 
      "lon": 29.0189989560001, 
      "name": "Hac\u0131 Mustafa Bedel  Camii"
    }, 
    {
      "lat": 41.0044046460001, 
      "lon": 29.1355595540001, 
      "name": "Korkmaz Camii"
    }, 
    {
      "lat": 41.0388516690001, 
      "lon": 29.0625359690001, 
      "name": "Kirazl\u0131tepe Merkez Camii"
    }, 
    {
      "lat": 41.184161513, 
      "lon": 28.759735569, 
      "name": "Bayram Veli Camii"
    }, 
    {
      "lat": 41.0454730870001, 
      "lon": 28.851844359, 
      "name": "G\u00f6nenli Mehmet Efendi Camii"
    }, 
    {
      "lat": 41.033236779, 
      "lon": 29.1528776910001, 
      "name": "Hac\u0131 Naz\u0131m Camii"
    }, 
    {
      "lat": 40.994297046, 
      "lon": 28.8484187980001, 
      "name": "\u015eirinevler Mehmet Akif Camii"
    }, 
    {
      "lat": 40.9748204040001, 
      "lon": 29.1064096650001, 
      "name": "Aligazibaba Camii"
    }, 
    {
      "lat": 40.973049824, 
      "lon": 29.1165962170001, 
      "name": "Hac\u0131 Abdurrahman Cansu Camii"
    }, 
    {
      "lat": 41.340246318, 
      "lon": 28.407193153, 
      "name": "\u00c7iftlikk\u00f6y Beldesi Camii"
    }, 
    {
      "lat": 41.011378472, 
      "lon": 28.931756174, 
      "name": "Koruk Mahmuta\u011fa Camii"
    }, 
    {
      "lat": 41.025866745, 
      "lon": 28.9756974210001, 
      "name": "Mahrizade H\u00fcseyin \u00c7elebi Camii"
    }, 
    {
      "lat": 41.0665866300001, 
      "lon": 29.0979698950001, 
      "name": "Cemile Hatun Camii"
    }, 
    {
      "lat": 41.061482486, 
      "lon": 29.0374879680001, 
      "name": "Tezkereci Osman Efendi Camii"
    }, 
    {
      "lat": 41.068787667, 
      "lon": 28.9361560450001, 
      "name": "Tabya Camii"
    }, 
    {
      "lat": 41.104244904, 
      "lon": 28.7902646480001, 
      "name": "Ba\u015fak \u015eehir Hac\u0131 Ahmet Camii"
    }, 
    {
      "lat": 41.0193768980001, 
      "lon": 28.958865702, 
      "name": "\u015eep Sefa Hatun Camii"
    }, 
    {
      "lat": 41.000304971, 
      "lon": 28.510919852, 
      "name": "G\u00fczelce Merkez Camii"
    }, 
    {
      "lat": 41.038345974, 
      "lon": 28.654425406, 
      "name": "K\u0131ra\u00e7 Hamidiye Elmas Camii"
    }, 
    {
      "lat": 41.038131762, 
      "lon": 28.647709987, 
      "name": "K\u0131ra\u00e7 Merkez Camii"
    }, 
    {
      "lat": 41.0448980560001, 
      "lon": 29.0059007520001, 
      "name": "Abbasa\u011fa Camii"
    }, 
    {
      "lat": 41.012701511, 
      "lon": 28.9545083310001, 
      "name": "Ho\u015fkadem Camii"
    }, 
    {
      "lat": 41.034207533, 
      "lon": 28.973012925, 
      "name": "Camii"
    }, 
    {
      "lat": 40.8460508690001, 
      "lon": 29.3071544470001, 
      "name": "Muhammed Emin Camii"
    }, 
    {
      "lat": 41.024661462, 
      "lon": 29.0122945360001, 
      "name": "H\u00fcsrev A\u011fa Camii"
    }, 
    {
      "lat": 41.30372214, 
      "lon": 28.6758219970001, 
      "name": "Tekos Yeni Camii"
    }, 
    {
      "lat": 41.044169837, 
      "lon": 29.103897498, 
      "name": "Kaz\u0131m Karabekir Mevlana Camii"
    }, 
    {
      "lat": 40.984912616, 
      "lon": 29.1625611740001, 
      "name": "Yedpa Camii"
    }, 
    {
      "lat": 40.9874195530001, 
      "lon": 28.79266009, 
      "name": "Florya Yeni Camii"
    }, 
    {
      "lat": 41.0054351570001, 
      "lon": 29.1413560670001, 
      "name": "Mehmet Zahit Kotku Camii"
    }, 
    {
      "lat": 40.981328606, 
      "lon": 28.7776027040001, 
      "name": "Bas\u0131nk\u00f6y Camii"
    }, 
    {
      "lat": 41.0217306150001, 
      "lon": 29.01786786, 
      "name": "Bulgurlu Mescit Camii"
    }, 
    {
      "lat": 41.0495951360001, 
      "lon": 28.836709012, 
      "name": "Ak\u015femsettin Camii"
    }, 
    {
      "lat": 41.007825822, 
      "lon": 29.1283030760001, 
      "name": "\u00c7akmak Mustafa Efendi Camii"
    }, 
    {
      "lat": 41.0391749240001, 
      "lon": 29.101319039, 
      "name": "Kaz\u0131m Karabekir Meyveli Bah\u00e7e Camii"
    }, 
    {
      "lat": 41.062111859, 
      "lon": 29.074445487, 
      "name": "Hz. \u00d6mer Camii"
    }, 
    {
      "lat": 41.0502169330001, 
      "lon": 28.858270481, 
      "name": "Mimar Sinan Camii"
    }, 
    {
      "lat": 41.262082095, 
      "lon": 28.627282085, 
      "name": "Boyal\u0131k K\u00f6y\u00fc Camii"
    }, 
    {
      "lat": 41.1827845820001, 
      "lon": 28.713648972, 
      "name": "Karl\u0131bay\u0131r \u00c7\u0131nar Camii"
    }, 
    {
      "lat": 40.978950012, 
      "lon": 28.873374099, 
      "name": "Hac\u0131 Kemal K\u0131ymet Demir Camii"
    }, 
    {
      "lat": 41.023570916, 
      "lon": 29.072161825, 
      "name": "\u00dclker Camii"
    }, 
    {
      "lat": 40.990664468, 
      "lon": 28.9025002650001, 
      "name": "Ta\u015f Camii"
    }, 
    {
      "lat": 41.003272748, 
      "lon": 28.8384935120001, 
      "name": "Bilal-i Habe\u015fi Camii"
    }, 
    {
      "lat": 40.9934274400001, 
      "lon": 28.921453038, 
      "name": "Yedikule Fetih Camii"
    }, 
    {
      "lat": 41.035911158, 
      "lon": 28.8470254960001, 
      "name": "Yavuz Selim Camii"
    }, 
    {
      "lat": 41.0309163470001, 
      "lon": 29.047817566, 
      "name": "Burhaniye Camii"
    }, 
    {
      "lat": 41.041590323, 
      "lon": 29.070098052, 
      "name": "Halitbin Vel\u0131d Camii"
    }, 
    {
      "lat": 40.98036146, 
      "lon": 29.0771619820001, 
      "name": "Sahra-i Cedit Camii"
    }, 
    {
      "lat": 40.8538812890001, 
      "lon": 29.30070822, 
      "name": "Ayd\u0131ntepe Camii"
    }, 
    {
      "lat": 40.916808383, 
      "lon": 29.2606606910001, 
      "name": "Ak\u015femsettin Camii"
    }, 
    {
      "lat": 40.8804623140001, 
      "lon": 29.280676833, 
      "name": "H.Hasan B.Y\u0131lmaz Camii"
    }, 
    {
      "lat": 40.9533462160001, 
      "lon": 29.1513704600001, 
      "name": "Ta\u015foca\u011f\u0131 Tepe Camii"
    }, 
    {
      "lat": 41.0763555280001, 
      "lon": 29.0008724750001, 
      "name": "Mescidi Aksa Camii"
    }, 
    {
      "lat": 41.0828326070001, 
      "lon": 28.2649215960001, 
      "name": "Vak\u0131f Camii"
    }, 
    {
      "lat": 40.9023565250001, 
      "lon": 29.221936918, 
      "name": "Kurfal\u0131 Ali Durano\u011flu Camii"
    }, 
    {
      "lat": 41.0760575690001, 
      "lon": 28.8885122300001, 
      "name": "Ta\u015fk\u00f6pr\u00fc Mimar Sinan Camii"
    }, 
    {
      "lat": 41.062900733, 
      "lon": 28.9524262890001, 
      "name": "\u00d6rnektepe Camii"
    }, 
    {
      "lat": 41.008637424, 
      "lon": 28.941745745, 
      "name": "Haseki Sultan Camii"
    }, 
    {
      "lat": 41.1974191630001, 
      "lon": 28.750313566, 
      "name": "Camii"
    }, 
    {
      "lat": 41.1911040370001, 
      "lon": 28.764016095, 
      "name": "Abdulaziz Efendi Camii"
    }, 
    {
      "lat": 41.178715239, 
      "lon": 28.889922627, 
      "name": "G\u00f6kt\u00fcrk Merkez Camii"
    }, 
    {
      "lat": 41.030929429, 
      "lon": 28.769962053, 
      "name": "Halkal\u0131 Yeni Do\u011fan Camii"
    }, 
    {
      "lat": 40.9914615170001, 
      "lon": 28.770660148, 
      "name": "K\u00fc\u00e7\u00fck\u00e7ekmece Fatih Camii"
    }, 
    {
      "lat": 40.9962363550001, 
      "lon": 29.1893693220001, 
      "name": "Hz. Usame Camii"
    }, 
    {
      "lat": 41.029953742, 
      "lon": 29.1596289300001, 
      "name": "Hac\u0131 \u0130nceler Camii"
    }, 
    {
      "lat": 41.018011379, 
      "lon": 29.013395948, 
      "name": "Nasuhi Mehmet Efendi Camii"
    }, 
    {
      "lat": 40.993681189, 
      "lon": 28.883904366, 
      "name": "Hamidiye Camii"
    }, 
    {
      "lat": 41.086108546, 
      "lon": 29.0049507480001, 
      "name": "Emniyet Camii"
    }, 
    {
      "lat": 40.9980340910001, 
      "lon": 29.0782608980001, 
      "name": "Takva Camii"
    }, 
    {
      "lat": 41.03436021, 
      "lon": 28.8169946950001, 
      "name": "Bilal Habe\u015fi Camii"
    }, 
    {
      "lat": 41.0457196410001, 
      "lon": 29.0179596520001, 
      "name": "Yahya Efendi Camii"
    }, 
    {
      "lat": 41.0441946940001, 
      "lon": 29.0679987460001, 
      "name": "G\u00fczeltepe Camii"
    }, 
    {
      "lat": 40.965388798, 
      "lon": 29.0989481350001, 
      "name": "Hac\u0131 \u0130smail Kurt Camii"
    }, 
    {
      "lat": 40.9874699380001, 
      "lon": 28.8462100100001, 
      "name": "Atak\u00f6y Yunus Emre Camii"
    }, 
    {
      "lat": 41.000709215, 
      "lon": 29.085406176, 
      "name": "Yunus Emre Camii"
    }, 
    {
      "lat": 41.009370173, 
      "lon": 28.710728606, 
      "name": "Firuzk\u00f6y Camii"
    }, 
    {
      "lat": 41.024063015, 
      "lon": 29.018443092, 
      "name": "Karakad\u0131 Alaattin Camii"
    }, 
    {
      "lat": 40.9682882270001, 
      "lon": 29.11632945, 
      "name": "Birlik Camii"
    }, 
    {
      "lat": 41.0084790080001, 
      "lon": 29.15118253, 
      "name": "Tu\u011flaharmanlar\u0131 Camii"
    }, 
    {
      "lat": 41.0357725370001, 
      "lon": 29.099711159, 
      "name": "Kaz\u0131m Karabekir Hicret Camii"
    }, 
    {
      "lat": 40.8744812630001, 
      "lon": 29.130014854, 
      "name": "B\u00fcy\u00fckada Hac\u0131 Havva \u00d6zen Camii"
    }, 
    {
      "lat": 40.994631971, 
      "lon": 28.838087801, 
      "name": "Hac\u0131lar Camii"
    }, 
    {
      "lat": 40.9973212640001, 
      "lon": 28.913173412, 
      "name": "Telsiz Mahalle Camii"
    }, 
    {
      "lat": 41.029552655, 
      "lon": 28.819836454, 
      "name": "Plevne( G\u00fcne\u015fli Veysel Karani) Camii"
    }, 
    {
      "lat": 41.2588120030001, 
      "lon": 28.6541248720001, 
      "name": "Baklal\u0131  Germe\u00e7e\u015fme  Camii"
    }, 
    {
      "lat": 41.011721095, 
      "lon": 29.067708602, 
      "name": "Bodrumi \u00d6mer L\u00fctfi Efendi Camii"
    }, 
    {
      "lat": 40.9935080830001, 
      "lon": 29.088374849, 
      "name": "Mevlana Camii"
    }, 
    {
      "lat": 41.0416366040001, 
      "lon": 29.0545225550001, 
      "name": "Cennet Camii"
    }, 
    {
      "lat": 40.989868416, 
      "lon": 29.11219393, 
      "name": "Kilisli Hac\u0131 Mustafa Kanat Camii"
    }, 
    {
      "lat": 41.0076974080001, 
      "lon": 28.8647250760001, 
      "name": "Aliosmana\u011fa Camii"
    }, 
    {
      "lat": 41.019455006, 
      "lon": 29.1165838210001, 
      "name": " \u00c7akmak Hz. Ali Camii"
    }, 
    {
      "lat": 40.9956535790001, 
      "lon": 28.8723135450001, 
      "name": "\u0130ncirli Fatih Camii"
    }, 
    {
      "lat": 41.024958059, 
      "lon": 28.83017188, 
      "name": "Hac\u0131 Mehmet Camii"
    }, 
    {
      "lat": 40.978223384, 
      "lon": 29.11478064, 
      "name": "Sel\u00e7uklar Camii"
    }, 
    {
      "lat": 41.001677602, 
      "lon": 28.846416022, 
      "name": "Y\u0131ld\u0131z Z\u00f6hre Camii"
    }, 
    {
      "lat": 41.024670438, 
      "lon": 28.849082696, 
      "name": "Molla G\u00fcrani Camii"
    }, 
    {
      "lat": 40.863878319, 
      "lon": 29.116605178, 
      "name": "B\u00fcy\u00fckada Nizam Camii"
    }, 
    {
      "lat": 41.0228269630001, 
      "lon": 29.1505246770001, 
      "name": "\u0130mam Rabbani Camii"
    }, 
    {
      "lat": 41.0169436670001, 
      "lon": 28.9020146340001, 
      "name": "Bircan EresinCamii"
    }, 
    {
      "lat": 40.9925463270001, 
      "lon": 28.8429985810001, 
      "name": "Kandil Camii"
    }, 
    {
      "lat": 40.9820242500001, 
      "lon": 28.875928849, 
      "name": "Amine Hatun Camii"
    }, 
    {
      "lat": 41.029132717, 
      "lon": 29.035051896, 
      "name": "Hac\u0131 Osmano\u011flu Camii"
    }, 
    {
      "lat": 40.9850290580001, 
      "lon": 28.8992182860001, 
      "name": "Ulu Camii"
    }, 
    {
      "lat": 41.0520912550001, 
      "lon": 28.8458776790001, 
      "name": "Fatih  Mahallesi  Camii"
    }, 
    {
      "lat": 41.016986451, 
      "lon": 28.705272178, 
      "name": "Kevser Camii"
    }, 
    {
      "lat": 40.877577235, 
      "lon": 29.099108421, 
      "name": "Hac\u0131 Mehmet Kerse Mescidi Camii"
    }, 
    {
      "lat": 41.0315565010001, 
      "lon": 29.022360172, 
      "name": "Silahtar Abdurrahman A\u011fa Camii"
    }, 
    {
      "lat": 40.985312311, 
      "lon": 29.096984725, 
      "name": "\u00d6zt\u00fcrkler(Osmano\u011flu) Camii"
    }, 
    {
      "lat": 41.0399974790001, 
      "lon": 29.068657015, 
      "name": "Bilal Habe\u015fi Camii"
    }, 
    {
      "lat": 40.969871755, 
      "lon": 29.2407179420001, 
      "name": "Selimiye Camii"
    }, 
    {
      "lat": 40.9802731610001, 
      "lon": 29.458871136, 
      "name": "G\u00f6\u00e7beyli Merkez Camii"
    }, 
    {
      "lat": 41.122300872, 
      "lon": 29.2922184940001, 
      "name": "H\u00fcseyinli K\u00f6y\u00fc Camii"
    }, 
    {
      "lat": 41.069497352, 
      "lon": 28.805772559, 
      "name": "Giyim San. Koop. Camii"
    }, 
    {
      "lat": 40.9858586620001, 
      "lon": 29.22606288, 
      "name": "Samand\u0131ra Merkez Camii"
    }, 
    {
      "lat": 41.0924895380001, 
      "lon": 29.671913562, 
      "name": "Yaylal\u0131 K\u00f6y\u00fc Camii"
    }, 
    {
      "lat": 41.04320324, 
      "lon": 29.5752334970001, 
      "name": "Darl\u0131k K\u00f6y\u00fc Camii"
    }, 
    {
      "lat": 41.0991784600001, 
      "lon": 28.01087304, 
      "name": "De\u011firmen K\u00f6y Camii"
    }, 
    {
      "lat": 40.928152551, 
      "lon": 29.341701061, 
      "name": "Fatih Merkez Camii"
    }, 
    {
      "lat": 41.0534579150001, 
      "lon": 29.39233362, 
      "name": "Esenceli K\u00f6y\u00fc Camii"
    }, 
    {
      "lat": 40.8881686340001, 
      "lon": 29.268133016, 
      "name": "Kaynarca Bah\u00e7elievler Camii"
    }, 
    {
      "lat": 41.064879852, 
      "lon": 28.934030297, 
      "name": "Y\u0131ld\u0131z Tabya Camii"
    }, 
    {
      "lat": 41.01251813, 
      "lon": 29.1458468970001, 
      "name": "Yu\u015fa Camii"
    }, 
    {
      "lat": 41.033305668, 
      "lon": 29.0803665770001, 
      "name": "\u00d6rs\u00fcnler Camii"
    }, 
    {
      "lat": 41.057114271, 
      "lon": 29.0063182640001, 
      "name": "Ebubekir Camii"
    }, 
    {
      "lat": 40.984707632, 
      "lon": 29.183704757, 
      "name": "Hac\u0131 Ali R\u0131za Camii"
    }, 
    {
      "lat": 40.9592716130001, 
      "lon": 28.8146345220001, 
      "name": "Hac\u0131 Mevl\u00fct Nalbant Camii"
    }, 
    {
      "lat": 41.0176162550001, 
      "lon": 29.020517231, 
      "name": "Tabaklar Camii"
    }, 
    {
      "lat": 40.9869648660001, 
      "lon": 29.091966762, 
      "name": "Hac\u0131 Ey\u00fcpo\u011flu Camii"
    }, 
    {
      "lat": 41.0640064030001, 
      "lon": 29.085924778, 
      "name": "Hekimba\u015f\u0131 Errahman Camii"
    }, 
    {
      "lat": 41.061648018, 
      "lon": 29.0932719510001, 
      "name": "Hekimba\u015f\u0131 Fatih Camii"
    }, 
    {
      "lat": 41.0276784120001, 
      "lon": 29.05653349, 
      "name": "Polis Evleri Camii"
    }, 
    {
      "lat": 41.002235252, 
      "lon": 28.8601671000001, 
      "name": "Yayla Camii"
    }, 
    {
      "lat": 41.0137708130001, 
      "lon": 29.020588925, 
      "name": "Ah\u00e7\u0131ba\u015f\u0131 Camii"
    }, 
    {
      "lat": 41.0542414720001, 
      "lon": 28.825963147, 
      "name": "Mahnutbey Hasan G\u00fcrsu  Camii"
    }, 
    {
      "lat": 41.011640793, 
      "lon": 28.835383113, 
      "name": "Muhammediye Camii"
    }, 
    {
      "lat": 41.011860626, 
      "lon": 29.1406673440001, 
      "name": " Do\u011fanevler Camii"
    }, 
    {
      "lat": 41.0126053160001, 
      "lon": 28.8583047290001, 
      "name": "So\u011fanl\u0131 Camii"
    }, 
    {
      "lat": 41.009991373, 
      "lon": 29.046383382, 
      "name": "Faikbey Mesc\u0131d\u0131 Camii"
    }, 
    {
      "lat": 41.0532602960001, 
      "lon": 29.058548015, 
      "name": "\u00c7i\u00e7ek\u00e7i Mehmet Efendi Camii"
    }, 
    {
      "lat": 41.0245379790001, 
      "lon": 29.093739859, 
      "name": "Medine Camii"
    }, 
    {
      "lat": 41.0380498860001, 
      "lon": 28.8621564530001, 
      "name": "\u00c7\u0131nar Mahallesi  Camii"
    }, 
    {
      "lat": 41.045960231, 
      "lon": 29.0757167960001, 
      "name": "G\u00fczeltepe Birlik Camii"
    }, 
    {
      "lat": 41.0176295090001, 
      "lon": 29.0278708440001, 
      "name": "Fenai Ali Efendi Camii"
    }, 
    {
      "lat": 40.990604686, 
      "lon": 29.1516890140001, 
      "name": "Aksekili Mehmet Uslu Camii"
    }, 
    {
      "lat": 41.0573576200001, 
      "lon": 29.0771961730001, 
      "name": "Mescidi Aksa Camii"
    }, 
    {
      "lat": 41.033117858, 
      "lon": 28.709374944, 
      "name": "Ye\u015filkent Mahalle Merkez Camii"
    }, 
    {
      "lat": 41.0052771370001, 
      "lon": 28.903439265, 
      "name": "Hac\u0131 Osmana\u011fa Camii"
    }, 
    {
      "lat": 40.9813763400001, 
      "lon": 28.867926454, 
      "name": "Konyal\u0131 Camii"
    }, 
    {
      "lat": 40.976369747, 
      "lon": 29.125603589, 
      "name": "Osmanl\u0131 \u00c7atakba\u015f\u0131 Camii"
    }, 
    {
      "lat": 41.0451224330001, 
      "lon": 29.0457849690001, 
      "name": "Hamid-\u0130 Evvel Camii"
    }, 
    {
      "lat": 41.0016099810001, 
      "lon": 28.7056773480001, 
      "name": "Kemalpa\u015fa Camii"
    }, 
    {
      "lat": 41.044465148, 
      "lon": 28.832990583, 
      "name": "Kumova Camii"
    }, 
    {
      "lat": 41.0502915860001, 
      "lon": 29.052883083, 
      "name": "Hamdullah Pa\u015fa Camii"
    }, 
    {
      "lat": 41.024158877, 
      "lon": 29.1008169950001, 
      "name": "Sondurak Camii"
    }, 
    {
      "lat": 41.0151711010001, 
      "lon": 29.0119762160001, 
      "name": "K\u00fc\u00e7\u00fck \u0130hsaniye Camii"
    }, 
    {
      "lat": 40.995554333, 
      "lon": 28.897362027, 
      "name": "Veliefendi Ba\u011f Camii"
    }, 
    {
      "lat": 41.0525683020001, 
      "lon": 29.11001321, 
      "name": "Molla H\u00fcsrev Camii"
    }, 
    {
      "lat": 40.9790401490001, 
      "lon": 28.705929892, 
      "name": "Siteler Camii"
    }, 
    {
      "lat": 40.9964486820001, 
      "lon": 29.0810419250001, 
      "name": "\u00d6rnek Mahallesi \u00d6rnek Mescidi(Mezun Camii)"
    }, 
    {
      "lat": 41.0436556970001, 
      "lon": 29.0084579100001, 
      "name": "\u015eerhazin S\u00fcleyman Ambera\u011fa Camii"
    }, 
    {
      "lat": 41.013012157, 
      "lon": 29.019834099, 
      "name": "Fethi Ahmet Pa\u015fa Camii"
    }, 
    {
      "lat": 41.11638265, 
      "lon": 28.96351636, 
      "name": "\u00c7ak\u0131rlar Camii"
    }, 
    {
      "lat": 40.9476925180001, 
      "lon": 29.2818272440001, 
      "name": "Hz. Halid Bin Velid Camii"
    }, 
    {
      "lat": 41.17705161, 
      "lon": 29.6110819530001, 
      "name": "Merkez G\u00fcnani Camii"
    }, 
    {
      "lat": 41.0309535960001, 
      "lon": 28.775697092, 
      "name": "Yunus Emre Camii"
    }, 
    {
      "lat": 41.002008076, 
      "lon": 28.7956239980001, 
      "name": "Sefak\u00f6y Siteler Camii"
    }, 
    {
      "lat": 40.869780834, 
      "lon": 29.2669129650001, 
      "name": "Erenler Camii"
    }, 
    {
      "lat": 40.8989376220001, 
      "lon": 29.1800206230001, 
      "name": "Orta Camii"
    }, 
    {
      "lat": 41.029424383, 
      "lon": 28.941515339, 
      "name": "Kefevi Camii"
    }, 
    {
      "lat": 41.0122641250001, 
      "lon": 28.798392429, 
      "name": "Sefak\u00f6y Kaz\u0131m Bekta\u015fo\u011flu Camii"
    }, 
    {
      "lat": 40.916424287, 
      "lon": 29.1682040650001, 
      "name": "Mustafa Denizer Camii"
    }, 
    {
      "lat": 40.9183915150001, 
      "lon": 29.2059218790001, 
      "name": "So\u011fanl\u0131k G\u00fcm\u00fc\u015fp\u0131nar Camii"
    }, 
    {
      "lat": 40.871634349, 
      "lon": 29.2923008270001, 
      "name": "Yakup Ey\u00fcbo\u011flu Mescidi"
    }, 
    {
      "lat": 41.0672491980001, 
      "lon": 28.7937877540001, 
      "name": "Masko Camii"
    }, 
    {
      "lat": 41.0723236170001, 
      "lon": 28.8911256310001, 
      "name": "Muharrem Camii"
    }, 
    {
      "lat": 41.071085651, 
      "lon": 28.907415482, 
      "name": "Hac\u0131 Veyis Camii"
    }, 
    {
      "lat": 41.0932349650001, 
      "lon": 28.8751776610001, 
      "name": "Bilal Habe\u015fi Camii"
    }, 
    {
      "lat": 41.062735995, 
      "lon": 28.919178452, 
      "name": "K\u0131r\u00e7e\u015fme Ulu Camii"
    }, 
    {
      "lat": 41.084043556, 
      "lon": 28.909122687, 
      "name": "K\u00fc\u00e7\u00fckk\u00f6y Tatbikat Camii"
    }, 
    {
      "lat": 41.0028185670001, 
      "lon": 28.934614722, 
      "name": "Sancaktar Hayrettin Camii"
    }, 
    {
      "lat": 41.0124335950001, 
      "lon": 28.950706956, 
      "name": "K\u0131z\u0131lminare Camii"
    }, 
    {
      "lat": 41.072035225, 
      "lon": 28.979875652, 
      "name": "\u00c7a\u011flayan Yeni Camii"
    }, 
    {
      "lat": 41.019741905, 
      "lon": 28.797712942, 
      "name": "\u0130n\u00f6n\u00fc Mahallesi Maslak \u00c7e\u015fme Ulu Camii"
    }, 
    {
      "lat": 41.223338305, 
      "lon": 28.210560721, 
      "name": "B\u00fcy\u00fck Sinekli K\u00f6y\u00fc Camii"
    }, 
    {
      "lat": 41.0872098940001, 
      "lon": 28.973557375, 
      "name": "\u015eht. S\u00fcleymaniye Camii"
    }, 
    {
      "lat": 41.0767798740001, 
      "lon": 28.9892058080001, 
      "name": "Ta\u015foca\u011f\u0131 Camii"
    }, 
    {
      "lat": 40.9805285510001, 
      "lon": 29.1583982490001, 
      "name": "Erengazi Ak\u015femsettin(Ba\u015fkaynak) Camii"
    }, 
    {
      "lat": 41.0152740460001, 
      "lon": 29.0275629290001, 
      "name": "Cevri Usta Camii"
    }, 
    {
      "lat": 40.9922061450001, 
      "lon": 29.033343071, 
      "name": "S\u00f6\u011f\u00fctl\u00fc\u00e7e\u015fme Camii"
    }, 
    {
      "lat": 41.0428680270001, 
      "lon": 28.8192481830001, 
      "name": "Yusuf Ziya Camii"
    }, 
    {
      "lat": 41.01820615, 
      "lon": 28.8348170880001, 
      "name": "Kocasinan Yeni(\u0130mam Mustafa Efendi) Camii"
    }, 
    {
      "lat": 41.023162991, 
      "lon": 29.080576056, 
      "name": "Namazgah Camii"
    }, 
    {
      "lat": 40.9915630670001, 
      "lon": 29.149567172, 
      "name": "Kanuni Sultan S\u00fcleyman Camii"
    }, 
    {
      "lat": 41.033913668, 
      "lon": 28.7031630120001, 
      "name": "K\u00f6pr\u00fcl\u00fc Mehmet Pa\u015fa Camii"
    }, 
    {
      "lat": 41.016248277, 
      "lon": 28.8224625770001, 
      "name": "K\u00f6yi\u00e7i Camii"
    }, 
    {
      "lat": 41.024988444, 
      "lon": 29.0908707090001, 
      "name": "Cevhera\u011fa Camii"
    }, 
    {
      "lat": 40.9998574800001, 
      "lon": 28.9131362900001, 
      "name": "Telsiz \u00c7ar\u015f\u0131 Camii"
    }, 
    {
      "lat": 41.0121151340001, 
      "lon": 29.16205467, 
      "name": "Yukar\u0131 Dudullu Osmangaz Korusu Camii"
    }, 
    {
      "lat": 40.9935193950001, 
      "lon": 29.1333694890001, 
      "name": "Tellio\u011flu Cihat Camii"
    }, 
    {
      "lat": 41.0222392540001, 
      "lon": 29.014298807, 
      "name": "Aziz Mahmut H\u00fcdayi Camii"
    }, 
    {
      "lat": 41.0268103610001, 
      "lon": 29.032577734, 
      "name": "Selami Ali Camii"
    }, 
    {
      "lat": 41.153282362, 
      "lon": 28.671732922, 
      "name": "Sazl\u0131bosna Camii"
    }, 
    {
      "lat": 41.050691849, 
      "lon": 28.854879328, 
      "name": "Mahmutbey Veysel Karani Camii"
    }, 
    {
      "lat": 40.9905400270001, 
      "lon": 29.048345575, 
      "name": "Bayraktar Camii"
    }, 
    {
      "lat": 41.0272498200001, 
      "lon": 29.06241218, 
      "name": "B\u00fcy\u00fck \u00c7aml\u0131ca Camii"
    }, 
    {
      "lat": 41.0278305950001, 
      "lon": 29.1182797010001, 
      "name": "Fatih San.Sit.  Molla G\u00fcrani Camii"
    }, 
    {
      "lat": 41.0003878000001, 
      "lon": 28.826738301, 
      "name": "Ak\u015femsettin Camii"
    }, 
    {
      "lat": 41.0198491780001, 
      "lon": 29.1234393190001, 
      "name": "\u00c7akmak Merkez Camii"
    }, 
    {
      "lat": 41.04217866, 
      "lon": 29.0875117190001, 
      "name": "Yavuzt\u00fcrk Aksa Camii"
    }, 
    {
      "lat": 41.0319465700001, 
      "lon": 29.0305342730001, 
      "name": "Hac\u0131 Mehmet Ali \u00d6zt\u00fcrk Camii"
    }, 
    {
      "lat": 41.0290412050001, 
      "lon": 28.9092680640001, 
      "name": "\u0130brahim Turhan Camii"
    }, 
    {
      "lat": 41.030556265, 
      "lon": 29.092948349, 
      "name": "Mustafa A\u011fa Camii"
    }, 
    {
      "lat": 41.017443761, 
      "lon": 29.132540566, 
      "name": "Hudayi Camii"
    }, 
    {
      "lat": 41.0120640920001, 
      "lon": 28.915588444, 
      "name": "\u015eeyh\u00fclislam Camii"
    }, 
    {
      "lat": 40.9769261120001, 
      "lon": 28.738970593, 
      "name": "Denizk\u00f6\u015fkler Camii"
    }, 
    {
      "lat": 41.000262321, 
      "lon": 29.222635919, 
      "name": "Samand\u0131ra Halilurahman Camii"
    }, 
    {
      "lat": 41.2486544980001, 
      "lon": 29.036599321, 
      "name": "Kilyos Kumk\u00f6y Camii"
    }, 
    {
      "lat": 41.1090485500001, 
      "lon": 28.8040118750001, 
      "name": "\u0130mam-\u0131 Azam Ebu Hanife Camii"
    }, 
    {
      "lat": 40.8342644940001, 
      "lon": 29.36152473, 
      "name": "G\u00fcm\u00fc\u015fp\u0131nar Camii"
    }, 
    {
      "lat": 40.9801381950001, 
      "lon": 29.278035118, 
      "name": "Bilal Habe\u015fi Camii"
    }, 
    {
      "lat": 41.0643301800001, 
      "lon": 28.8979007720001, 
      "name": "Barbaros Camii"
    }, 
    {
      "lat": 41.0425870020001, 
      "lon": 28.8030402950001, 
      "name": "Halkal\u0131 Ba\u011flar Beyaz\u0131t Camii"
    }, 
    {
      "lat": 41.2285997490001, 
      "lon": 28.369537569, 
      "name": "Kabak\u00e7a K\u00f6y\u00fc Camii"
    }, 
    {
      "lat": 41.0263851990001, 
      "lon": 28.9697162040001, 
      "name": "Yolcuzade Camii"
    }, 
    {
      "lat": 41.114865663, 
      "lon": 29.1014953110001, 
      "name": "Tepek\u00f6y Camii"
    }, 
    {
      "lat": 41.00923228, 
      "lon": 28.9683508460001, 
      "name": "\u00c7orlulu Ali Pa\u015fa Medresesi Ve Camii"
    }, 
    {
      "lat": 41.0471971650001, 
      "lon": 28.936602823, 
      "name": "Kaptan Pa\u015fa Camii"
    }, 
    {
      "lat": 41.032866981, 
      "lon": 28.9313421850001, 
      "name": "\u015eehit Mezarl\u0131\u011f\u0131 Camii"
    }, 
    {
      "lat": 41.0266387300001, 
      "lon": 28.9729121820001, 
      "name": "\u015eahsuvar Bey Camii"
    }, 
    {
      "lat": 41.085114822, 
      "lon": 29.067531988, 
      "name": "Anadolu Hisar\u0131 Fatih Camii"
    }, 
    {
      "lat": 41.0435782050001, 
      "lon": 29.00004635, 
      "name": "Emek\u00e7iba\u015f\u0131 Ali A\u011fa Camii"
    }, 
    {
      "lat": 40.9762587880001, 
      "lon": 28.604885149, 
      "name": "Yedikarde\u015fler Camii"
    }, 
    {
      "lat": 41.009512767, 
      "lon": 28.6429145490001, 
      "name": "B.\u015eehir Fatih Sultan Mehmet Camii"
    }, 
    {
      "lat": 41.022814495, 
      "lon": 28.4764294890001, 
      "name": "Kumburgaz Hamdi Tezel Camii"
    }, 
    {
      "lat": 41.0221798110001, 
      "lon": 28.6202259070001, 
      "name": "Ye\u015filtepe Camii"
    }, 
    {
      "lat": 41.0461538000001, 
      "lon": 28.942963379, 
      "name": "Kumbarahane Camii"
    }, 
    {
      "lat": 41.0239114450001, 
      "lon": 28.6041521510001, 
      "name": "Boztepe Camii"
    }, 
    {
      "lat": 41.029061445, 
      "lon": 28.970178361, 
      "name": "Kas\u0131mpa\u015fa Bedrettin Camii"
    }, 
    {
      "lat": 40.998565296, 
      "lon": 28.8949067570001, 
      "name": "Selvili Camii"
    }, 
    {
      "lat": 41.0451212250001, 
      "lon": 28.845562197, 
      "name": "Ebazer Camii"
    }, 
    {
      "lat": 41.030183725, 
      "lon": 29.080553401, 
      "name": "Yavuz Selim Camii"
    }, 
    {
      "lat": 41.0260265740001, 
      "lon": 29.017342747, 
      "name": "Muhasebeci Abdi Efendi Camii"
    }, 
    {
      "lat": 41.0339969720001, 
      "lon": 28.8573946940001, 
      "name": "Ba\u011fc\u0131lar Merkez Camii"
    }, 
    {
      "lat": 40.986635693, 
      "lon": 28.714651148, 
      "name": "S\u00fcleyman \u00c7elebi Camii"
    }, 
    {
      "lat": 41.0373990430001, 
      "lon": 28.69869104, 
      "name": "Fatih Camii"
    }, 
    {
      "lat": 41.0237772940001, 
      "lon": 29.02218379, 
      "name": "Solak Sinan Camii"
    }, 
    {
      "lat": 40.999234347, 
      "lon": 29.090261824, 
      "name": "Mustafa Kemal A\u015fa\u011f\u0131 Camii"
    }, 
    {
      "lat": 41.0169260500001, 
      "lon": 29.094872423, 
      "name": "D\u00f6rtyol Camii"
    }, 
    {
      "lat": 41.0169059720001, 
      "lon": 29.0355228780001, 
      "name": "Hac\u0131 Emim Y\u0131ld\u0131r\u0131m Camii"
    }, 
    {
      "lat": 41.0105671040001, 
      "lon": 29.1093259080001, 
      "name": "Hidayet Camii"
    }, 
    {
      "lat": 41.0247391890001, 
      "lon": 29.1725266980001, 
      "name": "A\u015fa\u011f\u0131 Dudullu \u00c7amgaz Camii"
    }, 
    {
      "lat": 41.044139079, 
      "lon": 29.111403088, 
      "name": "Kaz\u0131m Karabekir Hz Havva Camii"
    }, 
    {
      "lat": 41.0521835480001, 
      "lon": 28.852529276, 
      "name": "Sultan Ana Mescidi"
    }, 
    {
      "lat": 41.013528023, 
      "lon": 28.863598231, 
      "name": "\u0130mam-\u0131 Buhari Camii"
    }, 
    {
      "lat": 41.0259084900001, 
      "lon": 29.1574497890001, 
      "name": "A\u015fa\u011f\u0131  Dudullu Kastamonu Parseller Camii"
    }, 
    {
      "lat": 40.992127141, 
      "lon": 28.8459693360001, 
      "name": "Cengiz Topel Camii"
    }, 
    {
      "lat": 41.0199579740001, 
      "lon": 29.156092659, 
      "name": "Adem Yavuz Camii"
    }, 
    {
      "lat": 41.005172137, 
      "lon": 28.8683299730001, 
      "name": "Mehmet \u00dclker Camii"
    }, 
    {
      "lat": 41.070634252, 
      "lon": 28.9723864490001, 
      "name": "Hz. Ali Camii"
    }, 
    {
      "lat": 40.9891239240001, 
      "lon": 29.1437015400001, 
      "name": "Emekevler Camii"
    }, 
    {
      "lat": 41.0308223590001, 
      "lon": 28.8506338460001, 
      "name": "Yunus Emre Camii"
    }, 
    {
      "lat": 41.0075563980001, 
      "lon": 28.9693868900001, 
      "name": "Derby \u0130\u015fhan\u0131 Mescidi"
    }, 
    {
      "lat": 41.02049205, 
      "lon": 29.0166209700001, 
      "name": "Ahmediye Camii"
    }, 
    {
      "lat": 41.0034527660001, 
      "lon": 29.1237060300001, 
      "name": "\u00c7aml\u0131k Merkez Camii"
    }, 
    {
      "lat": 41.013983565, 
      "lon": 29.056043908, 
      "name": "Yusuf Dede Camii"
    }, 
    {
      "lat": 41.0926034880001, 
      "lon": 29.111280403, 
      "name": "G\u00f6stepe Mahallesi Sad\u0131ko\u011flu Camii"
    }, 
    {
      "lat": 41.1293469490001, 
      "lon": 29.2602624140001, 
      "name": "Cumhuriyet K\u00f6y\u00fc Camii"
    }, 
    {
      "lat": 41.1410726120001, 
      "lon": 29.5982718070001, 
      "name": "\u0130mrendere K\u00f6y\u00fc Camii"
    }, 
    {
      "lat": 40.8628978130001, 
      "lon": 29.3281656090001, 
      "name": "Y\u0131ld\u0131z Camii"
    }, 
    {
      "lat": 40.968335279, 
      "lon": 29.2565175500001, 
      "name": "Abdurrahman Gazi Camii"
    }, 
    {
      "lat": 41.0321919800001, 
      "lon": 28.990437312, 
      "name": "Molla \u00c7elebi Camii"
    }, 
    {
      "lat": 41.049200118, 
      "lon": 28.9249457350001, 
      "name": "H. Hamdi Ball\u0131soy Camii"
    }, 
    {
      "lat": 41.105290471, 
      "lon": 28.8002534010001, 
      "name": "Camii"
    }, 
    {
      "lat": 41.0078714410001, 
      "lon": 28.960783753, 
      "name": "Katip Sinan Camii"
    }, 
    {
      "lat": 41.0491992880001, 
      "lon": 29.092718259, 
      "name": "Erden Camii"
    }, 
    {
      "lat": 41.0206505560001, 
      "lon": 28.9607957170001, 
      "name": "Atlama Ta\u015f\u0131 Camii"
    }, 
    {
      "lat": 41.057974626, 
      "lon": 28.659891945, 
      "name": "Veysel Karani Esenyurt Camii"
    }, 
    {
      "lat": 41.0316863950001, 
      "lon": 28.9142929010001, 
      "name": "Sunta\u015f Site Camii"
    }, 
    {
      "lat": 41.037086769, 
      "lon": 28.961832418, 
      "name": "Seyit Ali Camii"
    }, 
    {
      "lat": 41.0087088160001, 
      "lon": 28.967183618, 
      "name": "Kali\u00e7eci Hasana\u011fa Camii"
    }, 
    {
      "lat": 41.0497333540001, 
      "lon": 28.8781361640001, 
      "name": "\u0130brahim Turan Camii"
    }, 
    {
      "lat": 40.9989330810001, 
      "lon": 28.7935565450001, 
      "name": "Sancakt\u00fcl Fabrika Camii"
    }, 
    {
      "lat": 41.1302408230001, 
      "lon": 29.032866805, 
      "name": "\u00c7aml\u0131tepe Ebu Bekir Camii"
    }, 
    {
      "lat": 41.137847854, 
      "lon": 29.0857794090001, 
      "name": "Yal\u0131k\u00f6y Serbostani Mustafa A\u011fa Camii"
    }, 
    {
      "lat": 40.976748135, 
      "lon": 28.677127295, 
      "name": "\u0130hlas Marmara Evleri Camii"
    }, 
    {
      "lat": 41.0373255980001, 
      "lon": 28.9658487140001, 
      "name": "Gedik Abdi Camii"
    }, 
    {
      "lat": 41.0217009730001, 
      "lon": 29.2502415160001, 
      "name": "Yenido\u011fan H.Hakk\u0131 Saruhan Camii"
    }, 
    {
      "lat": 40.947241148, 
      "lon": 29.109272134, 
      "name": "K\u00fc\u00e7\u00fckyal\u0131 Merkez Camii"
    }, 
    {
      "lat": 41.061604414, 
      "lon": 29.0809412030001, 
      "name": "Sultan Murat Camii"
    }, 
    {
      "lat": 41.179392449, 
      "lon": 28.991851232, 
      "name": "S\u00fcleyman Ve Hasan Yaz\u0131c\u0131 Camii"
    }, 
    {
      "lat": 41.0700706740001, 
      "lon": 28.684339994, 
      "name": "Bahce\u015fehir Camii"
    }, 
    {
      "lat": 41.0037538990001, 
      "lon": 28.963407315, 
      "name": "Tavasi S\u00fcleymana\u011fa Camii"
    }, 
    {
      "lat": 41.040357897, 
      "lon": 29.1801795580001, 
      "name": "\u00c7ekmek\u00f6y K\u00fc\u00e7\u00fck Koru Camii"
    }, 
    {
      "lat": 40.9181304750001, 
      "lon": 29.2090812170001, 
      "name": "So\u011fanl\u0131k Gaziler (Atat\u00fcrk) Camii"
    }, 
    {
      "lat": 41.054358974, 
      "lon": 28.8731473770001, 
      "name": "At\u0131\u015falan\u0131 Merkez Camii"
    }, 
    {
      "lat": 41.007287202, 
      "lon": 28.929233648, 
      "name": "Dokurhan Camii"
    }, 
    {
      "lat": 41.083034561, 
      "lon": 28.6590888600001, 
      "name": "Ho\u015fdere Camii"
    }, 
    {
      "lat": 40.9940234910001, 
      "lon": 28.526504473, 
      "name": "G\u00fczelce Yeni Camii"
    }, 
    {
      "lat": 40.9441501410001, 
      "lon": 29.2757467480001, 
      "name": "Uhut Camii"
    }, 
    {
      "lat": 41.020827336, 
      "lon": 29.2166282680001, 
      "name": "Tepe\u00fcst\u00fc Camii"
    }, 
    {
      "lat": 41.0603865310001, 
      "lon": 29.007766487, 
      "name": "Hoca Hayri Camii"
    }, 
    {
      "lat": 40.9805367750001, 
      "lon": 29.1503073760001, 
      "name": "Kay\u0131\u015fda\u011f\u0131 Fatih Camii"
    }, 
    {
      "lat": 41.0366906470001, 
      "lon": 29.1111416910001, 
      "name": "Sahray\u0131 Kebir Camii"
    }, 
    {
      "lat": 41.0198714590001, 
      "lon": 29.029200325, 
      "name": "\u00c7inili Camii"
    }, 
    {
      "lat": 41.023657348, 
      "lon": 29.015132178, 
      "name": "G\u00fclfem Hatun Camii"
    }, 
    {
      "lat": 41.3747731620001, 
      "lon": 28.2053006020001, 
      "name": "Ayd\u0131nlar K\u00f6y\u00fc Camii"
    }, 
    {
      "lat": 40.9935337570001, 
      "lon": 28.8775438270001, 
      "name": "\u0130ncirli Camii"
    }, 
    {
      "lat": 40.9932039230001, 
      "lon": 28.8802626740001, 
      "name": "Nak\u015fiye Esen Camii"
    }, 
    {
      "lat": 41.005402718, 
      "lon": 29.0829343930001, 
      "name": "Esatpa\u015fa Merkez Camii"
    }, 
    {
      "lat": 41.071040241, 
      "lon": 29.0667254860001, 
      "name": "Nuri C\u0131ng\u0131ll\u0131o\u011flu Camii"
    }, 
    {
      "lat": 40.989216664, 
      "lon": 28.7999790120001, 
      "name": "Polis E\u011fitim Merkezi Camii"
    }, 
    {
      "lat": 40.8713311860001, 
      "lon": 29.130795628, 
      "name": "B\u00fcy\u00fckada Hamidiye Camii"
    }, 
    {
      "lat": 40.990837335, 
      "lon": 29.023787547, 
      "name": "Sultan 3.Mustafa \u0130skele Camii"
    }, 
    {
      "lat": 41.0376334430001, 
      "lon": 28.8430469200001, 
      "name": "Kirazl\u0131 Fetih Camii"
    }, 
    {
      "lat": 41.0184330640001, 
      "lon": 28.8420107900001, 
      "name": "Kocasinan Merkez Camii"
    }, 
    {
      "lat": 41.186926387, 
      "lon": 28.6776140860001, 
      "name": "\u00c7ilingir K\u00f6y\u00fc Camii"
    }, 
    {
      "lat": 40.9909942250001, 
      "lon": 28.8611451210001, 
      "name": "Ak\u0131l Hastanesi Camii"
    }, 
    {
      "lat": 41.180667075, 
      "lon": 28.772332417, 
      "name": "Bo\u011fazk\u00f6y Merkez 1 Camii"
    }, 
    {
      "lat": 40.994859901, 
      "lon": 29.093195252, 
      "name": "Mimar Sinan Camii"
    }, 
    {
      "lat": 41.0313017980001, 
      "lon": 29.0557987460001, 
      "name": "Burhaniye Mahallesi O\u011fuzhan Camii"
    }, 
    {
      "lat": 41.0156627010001, 
      "lon": 29.013468661, 
      "name": "\u0130hsaniye Camii"
    }, 
    {
      "lat": 41.051687154, 
      "lon": 29.100778715, 
      "name": "Kaz\u0131m Karabekir Mira\u00e7 Camii"
    }, 
    {
      "lat": 41.006938931, 
      "lon": 29.051769603, 
      "name": "Ac\u0131badem Merkez \u00c7avu\u015fo\u011flu Camii"
    }, 
    {
      "lat": 41.005440224, 
      "lon": 28.963234261, 
      "name": "\u0130brahim Pa\u015fa Muhsine Hatun Camii"
    }, 
    {
      "lat": 40.9883561790001, 
      "lon": 28.895673242, 
      "name": "S\u00fcmer Camii"
    }, 
    {
      "lat": 41.012601338, 
      "lon": 29.131170674, 
      "name": "\u015eehit Yurdanur Camii"
    }, 
    {
      "lat": 40.987808816, 
      "lon": 29.1626762670001, 
      "name": "Ebu Hureyre Camii"
    }, 
    {
      "lat": 41.177135198, 
      "lon": 28.7018779540001, 
      "name": "Hara\u00e7\u00e7\u0131 Merkez Camii"
    }, 
    {
      "lat": 41.0234210100001, 
      "lon": 29.166456775, 
      "name": "Bedir Camii"
    }, 
    {
      "lat": 40.8774319560001, 
      "lon": 29.2907048710001, 
      "name": "Nasrullah Camii"
    }, 
    {
      "lat": 40.8931905530001, 
      "lon": 29.2140697180001, 
      "name": "Muhammet Ali Camii"
    }, 
    {
      "lat": 41.0840397910001, 
      "lon": 28.7857152730001, 
      "name": "Sara\u00e7lar Camii"
    }, 
    {
      "lat": 41.013781271, 
      "lon": 28.9405158390001, 
      "name": "Aynal\u0131 \u00c7e\u015fme Camii"
    }, 
    {
      "lat": 41.0808576790001, 
      "lon": 28.9646558920001, 
      "name": "Nurtepe Camii"
    }, 
    {
      "lat": 41.214407233, 
      "lon": 28.7293597510001, 
      "name": "Ta\u015foluk Bilal-\u0130 Habe\u015fi Camii"
    }, 
    {
      "lat": 41.0822420750001, 
      "lon": 28.9395881030001, 
      "name": "Yeni Mevlana Camii"
    }, 
    {
      "lat": 40.981556626, 
      "lon": 29.220602743, 
      "name": "Samand\u0131ra Veysel Karani Camii"
    }, 
    {
      "lat": 40.950952703, 
      "lon": 29.281895982, 
      "name": "Abdulkadir Geylani Camii"
    }, 
    {
      "lat": 40.9901765220001, 
      "lon": 29.2581040750001, 
      "name": "Hac\u0131 Veyis Camii"
    }, 
    {
      "lat": 41.062116862, 
      "lon": 28.995730988, 
      "name": "Mehmet\u00e7ik Camii"
    }, 
    {
      "lat": 41.058596294, 
      "lon": 28.9660208450001, 
      "name": "Darulaceze Camii"
    }, 
    {
      "lat": 40.9615804960001, 
      "lon": 29.2747769370001, 
      "name": "Fatih Camii"
    }, 
    {
      "lat": 40.949661807, 
      "lon": 29.273656159, 
      "name": "Yakutiye Camii"
    }, 
    {
      "lat": 40.9357813010001, 
      "lon": 29.2155187550001, 
      "name": "U\u011fur Mumcu Adnan Kahveci Camii"
    }, 
    {
      "lat": 41.073126389, 
      "lon": 28.727485641, 
      "name": "\u0130mmam-R\u0131za Camii"
    }, 
    {
      "lat": 41.116783459, 
      "lon": 29.0457001570001, 
      "name": "\u0130stinye Kapl\u0131calar Mevki Camii"
    }, 
    {
      "lat": 41.0797100070001, 
      "lon": 28.7951173450001, 
      "name": "\u0130pkas Kooperatif Camii"
    }, 
    {
      "lat": 41.177405456, 
      "lon": 29.615120985, 
      "name": "Bali Bey Mahalle Camii"
    }, 
    {
      "lat": 41.0777602360001, 
      "lon": 28.9626422650001, 
      "name": "Uhud Camii"
    }, 
    {
      "lat": 40.9988934100001, 
      "lon": 29.050906003, 
      "name": "\u0130ncirlibostan Camii"
    }, 
    {
      "lat": 41.0217311220001, 
      "lon": 28.8575749830001, 
      "name": "Y\u0131ld\u0131z Tepe Cezine Camii"
    }, 
    {
      "lat": 41.012119505, 
      "lon": 28.8235864580001, 
      "name": "Yenibosna Yeni (Alt\u0131ny\u0131ld\u0131z) Camii"
    }, 
    {
      "lat": 41.005486165, 
      "lon": 29.0752697500001, 
      "name": "Fetih Camii"
    }, 
    {
      "lat": 41.057361364, 
      "lon": 28.84060021, 
      "name": "Allahu Ekber Camii"
    }, 
    {
      "lat": 41.0186296970001, 
      "lon": 29.0196917480001, 
      "name": "Kurban Nasuh Baba Camii"
    }, 
    {
      "lat": 41.042023321, 
      "lon": 29.106383373, 
      "name": "Karabekir \u0130mam-\u0131  Gazali Camii"
    }, 
    {
      "lat": 41.027782426, 
      "lon": 28.8346948080001, 
      "name": "H\u00fcrriyet Mahallesi Yeni Camii"
    }, 
    {
      "lat": 41.01889729, 
      "lon": 29.161283052, 
      "name": "Mehmet Emin Camii"
    }, 
    {
      "lat": 40.977228718, 
      "lon": 29.107826985, 
      "name": "\u015eehitler Camii"
    }, 
    {
      "lat": 40.9990006670001, 
      "lon": 29.065242627, 
      "name": "\u00dcnalan Merkez Camii"
    }, 
    {
      "lat": 41.0594580270001, 
      "lon": 28.835079072, 
      "name": "Yed-i Beyza Zeliha Hatun Camii"
    }, 
    {
      "lat": 41.0160077240001, 
      "lon": 29.0290582480001, 
      "name": "Kartalbaba Camii"
    }, 
    {
      "lat": 41.0448735940001, 
      "lon": 29.1079139570001, 
      "name": "Kaz\u0131m Karabekir Hz. Osman Camii"
    }, 
    {
      "lat": 41.001592499, 
      "lon": 28.840719773, 
      "name": "Nur Camii"
    }, 
    {
      "lat": 40.990106299, 
      "lon": 29.056455467, 
      "name": "Zilelio\u011flu Camii"
    }, 
    {
      "lat": 41.199094512, 
      "lon": 28.7258673470001, 
      "name": "\u0130brahim Hakk\u0131 Hz. Hicret Camii"
    }, 
    {
      "lat": 41.02654634, 
      "lon": 29.1655941000001, 
      "name": "Emin Alipa\u015fa Camii"
    }, 
    {
      "lat": 41.0085528550001, 
      "lon": 28.8616269440001, 
      "name": "Bas\u0131n Sitesi Camii"
    }, 
    {
      "lat": 41.0168762000001, 
      "lon": 28.8582522400001, 
      "name": "Cumhuriyet Mahallesi Merkez Camii"
    }, 
    {
      "lat": 41.0417203380001, 
      "lon": 28.999259479, 
      "name": "Vi\u015fnezade Camii"
    }, 
    {
      "lat": 41.0081742840001, 
      "lon": 28.8324279010001, 
      "name": "Yenibosna Mehmet Akif Camii"
    }, 
    {
      "lat": 41.050885282, 
      "lon": 29.0547686580001, 
      "name": "Kerime Hatun Camii"
    }, 
    {
      "lat": 41.022684171, 
      "lon": 28.860376785, 
      "name": "Esma Hatun Kocac\u0131k Camii"
    }, 
    {
      "lat": 41.0186229180001, 
      "lon": 29.0167909460001, 
      "name": "Malatyal\u0131 \u0130smail A\u011fa Camii"
    }, 
    {
      "lat": 40.984698501, 
      "lon": 29.159246995, 
      "name": "\u0130brahim Ethem Camii"
    }, 
    {
      "lat": 40.9948387330001, 
      "lon": 29.039397664, 
      "name": "Hasanpa\u015fa Camii"
    }, 
    {
      "lat": 40.979357522, 
      "lon": 29.1101066890001, 
      "name": "Ba\u011flari\u00e7i Camii"
    }, 
    {
      "lat": 40.981702634, 
      "lon": 29.141200274, 
      "name": "H\u00fcseyniye(\u0130mam H\u00fcseyin) Camii"
    }, 
    {
      "lat": 40.997437683, 
      "lon": 28.8413429730001, 
      "name": "Hazreti \u00d6mer Camii"
    }, 
    {
      "lat": 41.0040245610001, 
      "lon": 29.0673166, 
      "name": "Sad\u0131klar \u00dcnalan Camii"
    }, 
    {
      "lat": 41.059930863, 
      "lon": 29.0999459610001, 
      "name": "Hekimba\u015f\u0131 Merkez Camii"
    }, 
    {
      "lat": 41.021336359, 
      "lon": 29.0948559940001, 
      "name": "\u015eafak Mescidi "
    }, 
    {
      "lat": 40.976542318, 
      "lon": 28.71136541, 
      "name": "Kuba Mescidi"
    }, 
    {
      "lat": 40.9797439970001, 
      "lon": 28.7210426030001, 
      "name": "Avc\u0131lar Merkez Camii ve K\u00fclt\u00fcr Merkezi "
    }, 
    {
      "lat": 40.9531727250001, 
      "lon": 29.3015366010001, 
      "name": "Sinan Camii"
    }, 
    {
      "lat": 40.962173335, 
      "lon": 29.2548975730001, 
      "name": "M. Akif Camii"
    }, 
    {
      "lat": 41.0780715720001, 
      "lon": 29.0074920660001, 
      "name": "G\u00fclez Camii"
    }, 
    {
      "lat": 40.9129565430001, 
      "lon": 29.3018752850001, 
      "name": "Kurtk\u00f6y Merkez Camii"
    }, 
    {
      "lat": 40.9287262550001, 
      "lon": 29.3234967860001, 
      "name": "Tu\u011fla Harmanlar\u0131 Camii"
    }, 
    {
      "lat": 41.0892665820001, 
      "lon": 28.8714431920001, 
      "name": "Fevzi \u00c7akmak Camii"
    }, 
    {
      "lat": 41.0803905380001, 
      "lon": 28.8843408220001, 
      "name": "Karadeniz Mahallesi Merkez Camii"
    }, 
    {
      "lat": 41.0143136200001, 
      "lon": 28.943259045, 
      "name": "Molla \u015eeref Camii"
    }, 
    {
      "lat": 41.0216156430001, 
      "lon": 28.9400685090001, 
      "name": "Ak\u015femsettin Camii"
    }, 
    {
      "lat": 41.0875228210001, 
      "lon": 28.9888704260001, 
      "name": "\u015eirintepe Camii"
    }, 
    {
      "lat": 41.0140448940001, 
      "lon": 28.9569220120001, 
      "name": "\u015eehzadeba\u015f\u0131 Camii"
    }, 
    {
      "lat": 40.992494752, 
      "lon": 29.0700880850001, 
      "name": "Bayraktar Yeni Camii"
    }, 
    {
      "lat": 41.0084574360001, 
      "lon": 28.892845096, 
      "name": "\u0130nce Minare Camii"
    }, 
    {
      "lat": 41.0181732450001, 
      "lon": 28.7818282120001, 
      "name": "S\u00f6g\u00fctl\u00fc\u00e7e\u015fme Ak\u015femsettin Camii"
    }, 
    {
      "lat": 41.0032057270001, 
      "lon": 29.194777006, 
      "name": "Sar\u0131gazi Hac\u0131 \u0130zzet Dursun Camii"
    }, 
    {
      "lat": 40.9558462480001, 
      "lon": 29.2966742690001, 
      "name": "Vahdet Camii"
    }, 
    {
      "lat": 40.9684008610001, 
      "lon": 29.2499795890001, 
      "name": "Karap\u0131nar Camii"
    }, 
    {
      "lat": 40.9769977510001, 
      "lon": 29.2587591550001, 
      "name": "Ebubekir Camii"
    }, 
    {
      "lat": 40.9666174640001, 
      "lon": 29.2620300310001, 
      "name": "Dumlup\u0131nar Camii"
    }, 
    {
      "lat": 41.045470687, 
      "lon": 28.431355151, 
      "name": "Kamiloba Camii"
    }, 
    {
      "lat": 41.1317594110001, 
      "lon": 28.2067014940001, 
      "name": "K\u00fc\u00e7\u00fckk\u0131l\u0131\u00e7l\u0131 K\u00f6y\u00fc Camii"
    }, 
    {
      "lat": 41.2142470090001, 
      "lon": 29.1087176880001, 
      "name": "Garip\u00e7i K\u00f6y\u00fc Camii"
    }, 
    {
      "lat": 41.1293074050001, 
      "lon": 29.0293720670001, 
      "name": "Derbent \u00c7aml\u0131tepe Merkez Camii"
    }, 
    {
      "lat": 40.9659507380001, 
      "lon": 28.839003248, 
      "name": "Ye\u015flyurt Camii"
    }, 
    {
      "lat": 41.014811174, 
      "lon": 29.088241125, 
      "name": "Hac\u0131 \u00d6mer Camii"
    }, 
    {
      "lat": 41.0070217320001, 
      "lon": 29.0874928590001, 
      "name": "Hac\u0131lar Camii"
    }, 
    {
      "lat": 40.9911070570001, 
      "lon": 29.0683910290001, 
      "name": "Hay\u0131rseverler Camii"
    }, 
    {
      "lat": 40.983540276, 
      "lon": 28.8927489860001, 
      "name": "Tek Camii"
    }, 
    {
      "lat": 41.1882034130001, 
      "lon": 28.742058301, 
      "name": "Osmanl\u0131 Camii"
    }, 
    {
      "lat": 41.0463300420001, 
      "lon": 28.832907843, 
      "name": "Bedir Camii"
    }, 
    {
      "lat": 41.0097642650001, 
      "lon": 29.102905821, 
      "name": "Atakent Alparslan Camii"
    }, 
    {
      "lat": 41.0024288560001, 
      "lon": 28.8770453670001, 
      "name": "Bah\u00e7elievler Yenii Camii"
    }, 
    {
      "lat": 41.0013973320001, 
      "lon": 28.932603698, 
      "name": "Abdi \u00c7elebi Camii"
    }, 
    {
      "lat": 41.02010203, 
      "lon": 29.1032549670001, 
      "name": "\u015eehzade Camii"
    }, 
    {
      "lat": 41.0112270990001, 
      "lon": 29.086165361, 
      "name": "S\u00f6\u011f\u00fctl\u00fc\u00e7ay\u0131r Molla Camii"
    }, 
    {
      "lat": 41.214789232, 
      "lon": 28.7474230350001, 
      "name": "\u0130mrahor Hz. \u00d6mer Camii"
    }, 
    {
      "lat": 40.9632800000001, 
      "lon": 29.1137759650001, 
      "name": "G\u00f6kyi\u011fit Camii"
    }, 
    {
      "lat": 41.0195916000001, 
      "lon": 29.178059585, 
      "name": "Hac\u0131 Leyla Bing\u00f6l Camii"
    }, 
    {
      "lat": 41.157246582, 
      "lon": 28.6180328680001, 
      "name": "Had\u0131mk\u00f6y Had\u0131mbaba  Camii"
    }, 
    {
      "lat": 41.018258712, 
      "lon": 29.010246604, 
      "name": "Sinan Pa\u015fa Camii"
    }, 
    {
      "lat": 41.0557439410001, 
      "lon": 28.8424248150001, 
      "name": "Muaz Bin Cebel Camii"
    }, 
    {
      "lat": 41.025443357, 
      "lon": 29.0795863550001, 
      "name": "G\u00fcm\u00fc\u015fsu Camii"
    }, 
    {
      "lat": 41.0178658660001, 
      "lon": 29.109672717, 
      "name": "Atakent Mahallesi  Halilurrahman Camii"
    }, 
    {
      "lat": 41.2346090870001, 
      "lon": 28.5957103750001, 
      "name": "Yass\u0131\u00f6ren K\u00f6y\u00fc Camii"
    }, 
    {
      "lat": 41.000757826, 
      "lon": 29.1336620800001, 
      "name": "S\u00fcmeyye Hatun Camii"
    }, 
    {
      "lat": 41.0264279020001, 
      "lon": 29.1023569930001, 
      "name": "\u0130mam-\u0130 Azam Camii"
    }, 
    {
      "lat": 41.018706514, 
      "lon": 28.921325403, 
      "name": "Anadolu Otogar Camii"
    }, 
    {
      "lat": 41.0125311560001, 
      "lon": 29.093623172, 
      "name": "R\u0131za Hatun Camii"
    }, 
    {
      "lat": 41.0460719750001, 
      "lon": 29.0681513550001, 
      "name": "\u00c7engelk\u00f6y K\u00fc\u00e7\u00fck Namazgah Camii"
    }, 
    {
      "lat": 41.1981991070001, 
      "lon": 28.754860713, 
      "name": "Bolluca Ensar Camii"
    }, 
    {
      "lat": 41.012231942, 
      "lon": 28.818671512, 
      "name": "\u00c7oban \u00c7e\u015fme Camii"
    }, 
    {
      "lat": 41.0178459030001, 
      "lon": 29.0290609670001, 
      "name": "Pazar Ba\u015f\u0131 Camii"
    }, 
    {
      "lat": 41.0020251920001, 
      "lon": 29.0721359890001, 
      "name": "Abdurrahman Soyak Camii"
    }, 
    {
      "lat": 41.0483521670001, 
      "lon": 28.857074712, 
      "name": "\u0130mam\u0131 Azam Camii"
    }, 
    {
      "lat": 41.0141322000001, 
      "lon": 29.1527555120001, 
      "name": " Yenievler Camii"
    }, 
    {
      "lat": 41.0452666420001, 
      "lon": 28.878597122, 
      "name": "Sondurak Camii"
    }, 
    {
      "lat": 41.0156724240001, 
      "lon": 28.928136362, 
      "name": "\u0130skender A\u011fa Camii"
    }, 
    {
      "lat": 41.0055809300001, 
      "lon": 28.937620468, 
      "name": "Haydar Keth\u00fcda Camii"
    }, 
    {
      "lat": 41.02185158, 
      "lon": 28.9416287620001, 
      "name": "H\u0131rka-\u0130 \u015eerif Camii"
    }, 
    {
      "lat": 41.0031018940001, 
      "lon": 28.925182094, 
      "name": "\u0130skender \u00c7elebi Camii"
    }, 
    {
      "lat": 41.007686258, 
      "lon": 28.9674565450001, 
      "name": "Divan\u0131 Ali Camii"
    }, 
    {
      "lat": 41.0219363050001, 
      "lon": 28.9364996050001, 
      "name": "H\u00fcrrem \u00c7avu\u015f Camii"
    }, 
    {
      "lat": 40.9314432370001, 
      "lon": 29.151892117, 
      "name": "122 Evler Camii"
    }, 
    {
      "lat": 41.0707203220001, 
      "lon": 28.7488884740001, 
      "name": "Halil\u00fcrrahman Camii"
    }, 
    {
      "lat": 41.1750636370001, 
      "lon": 29.0635933200001, 
      "name": "Yeni Mahalle Havantepe Camii"
    }, 
    {
      "lat": 41.0952181420001, 
      "lon": 29.0349510240001, 
      "name": "K\u00fc\u00e7\u00fck Armutlu Merkez Camii"
    }, 
    {
      "lat": 41.080272053, 
      "lon": 28.928883566, 
      "name": "Veysel Karani Camii"
    }, 
    {
      "lat": 40.8973587690001, 
      "lon": 29.210593127, 
      "name": "K\u0131br\u0131s \u015eehitler Camii"
    }, 
    {
      "lat": 41.115566722, 
      "lon": 29.878891987, 
      "name": "B.B.K\u00fc\u00e7\u00fck A\u015fa\u011f\u0131 Camii"
    }, 
    {
      "lat": 40.9040032830001, 
      "lon": 29.172250746, 
      "name": "G. O. Pa\u015fa Camii"
    }, 
    {
      "lat": 40.9573986390001, 
      "lon": 29.265808088, 
      "name": "M\u00fccahidler Camii"
    }, 
    {
      "lat": 40.8979465410001, 
      "lon": 29.250326439, 
      "name": "Dolayoba 450 Konutlar Camii"
    }, 
    {
      "lat": 40.9386032370001, 
      "lon": 29.285922772, 
      "name": "Bah\u00e7elievler Camii"
    }, 
    {
      "lat": 41.162858102, 
      "lon": 29.268026591, 
      "name": "\u00d6\u011f\u00fcmce K\u00f6y\u00fc Camii"
    }, 
    {
      "lat": 40.983384003, 
      "lon": 29.115292014, 
      "name": "Mehmet R\u00fc\u015ft\u00fc A\u015f\u0131kkutlu(K\u00fc\u00e7\u00fck Bakkalk\u00f6y) Camii"
    }, 
    {
      "lat": 41.059202283, 
      "lon": 29.0977198470001, 
      "name": "Hekimba\u015f\u0131 Camii"
    }, 
    {
      "lat": 41.051767452, 
      "lon": 29.095903606, 
      "name": "Kaz\u0131m Karabekir Merkez Efendi Camii"
    }, 
    {
      "lat": 41.025762812, 
      "lon": 28.8396416360001, 
      "name": "Barbaros Camii"
    }, 
    {
      "lat": 41.0362141160001, 
      "lon": 29.0568809870001, 
      "name": "Saray Camii"
    }, 
    {
      "lat": 40.9933856270001, 
      "lon": 28.899816206, 
      "name": "Konyal\u0131 Camii"
    }, 
    {
      "lat": 41.0494275250001, 
      "lon": 29.053625691, 
      "name": "Hac\u0131 \u00d6mer Efendi Camii"
    }, 
    {
      "lat": 41.01845998, 
      "lon": 29.1437333860001, 
      "name": "A\u015fa\u011f\u0131 Dudullu Mevlana Camii"
    }, 
    {
      "lat": 41.0093827360001, 
      "lon": 29.1748537400001, 
      "name": "Ferhat Nas\u0131r Camii"
    }, 
    {
      "lat": 41.0619066020001, 
      "lon": 28.733961665, 
      "name": "Alt\u0131n\u015fehir Hz. \u0130brahim Camii"
    }, 
    {
      "lat": 41.0525905690001, 
      "lon": 29.104262846, 
      "name": "Kaz\u0131m Karabekir Bereket Camii"
    }, 
    {
      "lat": 41.0407528260001, 
      "lon": 29.065473334, 
      "name": "Munire Hatun Camii"
    }, 
    {
      "lat": 41.0230481660001, 
      "lon": 29.034198357, 
      "name": "Ba\u011flarba\u015f\u0131 Camii"
    }, 
    {
      "lat": 41.0348669210001, 
      "lon": 28.868271672, 
      "name": "Ebubekir Camii"
    }, 
    {
      "lat": 41.0247941760001, 
      "lon": 29.027813048, 
      "name": "Suca Ahmet Pa\u015fa Camii"
    }, 
    {
      "lat": 41.0197546100001, 
      "lon": 29.0754136210001, 
      "name": "Alvarl\u0131zade Hace Seyfettin  Camii"
    }, 
    {
      "lat": 41.0155497800001, 
      "lon": 29.1124256270001, 
      "name": "Arma\u011fanevler Camii"
    }, 
    {
      "lat": 41.0571951650001, 
      "lon": 29.0531968490001, 
      "name": "Kuleli Kaymak Mustafa Pa\u015fa Camii"
    }, 
    {
      "lat": 40.971693675, 
      "lon": 29.121271054, 
      "name": "Hac\u0131 Nuri Cerit Camii"
    }, 
    {
      "lat": 41.03028055, 
      "lon": 29.052434588, 
      "name": "Akabe Camii"
    }, 
    {
      "lat": 41.00942267, 
      "lon": 29.0645798840001, 
      "name": "Kotku Camii"
    }, 
    {
      "lat": 41.1952257500001, 
      "lon": 28.751422383, 
      "name": "\u0130slambey Mahallesi Camii"
    }, 
    {
      "lat": 41.015644835, 
      "lon": 28.8553176630001, 
      "name": "Yunus Emre Camii"
    }, 
    {
      "lat": 41.0192625080001, 
      "lon": 29.097488878, 
      "name": " Birlik Camii"
    }, 
    {
      "lat": 41.020804447, 
      "lon": 29.0373390240001, 
      "name": "\u0130lahiyat Fak\u00fcltesi Camii"
    }, 
    {
      "lat": 41.0370132370001, 
      "lon": 28.822308461, 
      "name": "Kazakkent Altay Camii"
    }, 
    {
      "lat": 41.022828815, 
      "lon": 29.012488966, 
      "name": "Kaptan Pa\u015fa Camii"
    }, 
    {
      "lat": 40.9987907350001, 
      "lon": 29.0671725130001, 
      "name": "\u00dcnalan Mahalles\u0131 \u00dcnalan Camii"
    }, 
    {
      "lat": 41.2221266870001, 
      "lon": 28.7059486360001, 
      "name": "Ta\u015foluk Sa\u011f\u0131r O\u011flu Camii"
    }, 
    {
      "lat": 41.0024034080001, 
      "lon": 29.0751053010001, 
      "name": "Bulgurlu Mahallesi Tahral\u0131 Camii"
    }, 
    {
      "lat": 41.0000424840001, 
      "lon": 28.9185720850001, 
      "name": "Ata Garaj\u0131 Camii"
    }, 
    {
      "lat": 41.001036813, 
      "lon": 29.062090836, 
      "name": "Kuba Mescidi Camii"
    }, 
    {
      "lat": 41.049098617, 
      "lon": 29.0602157180001, 
      "name": "Hz Hamza Camii"
    }, 
    {
      "lat": 41.0083560890001, 
      "lon": 29.118766911, 
      "name": "Selmani Farisi Camii"
    }, 
    {
      "lat": 41.004803397, 
      "lon": 28.848476583, 
      "name": "Barbaros Camii"
    }, 
    {
      "lat": 40.9956368410001, 
      "lon": 29.1123835070001, 
      "name": "Ata\u015fehir Mimar Sinan Camii"
    }, 
    {
      "lat": 41.0075706430001, 
      "lon": 29.1392207810001, 
      "name": "Hz. Ebubekir Camii"
    }, 
    {
      "lat": 41.022167472, 
      "lon": 29.1453116060001, 
      "name": "Ihlamurkuyu Birlik Camii"
    }, 
    {
      "lat": 41.1190568120001, 
      "lon": 28.8102110510001, 
      "name": "Yunus Emre Camii"
    }, 
    {
      "lat": 41.182361703, 
      "lon": 28.741897115, 
      "name": "Arnavutk\u00f6y Merkez Camii"
    }, 
    {
      "lat": 40.9826418370001, 
      "lon": 28.7435851930001, 
      "name": "Fetih Camii"
    }, 
    {
      "lat": 41.077857034, 
      "lon": 28.880211622, 
      "name": "Yunus Emre Camii"
    }, 
    {
      "lat": 41.1205851870001, 
      "lon": 29.003605642, 
      "name": "\u015eerife Han\u0131m Camii"
    }, 
    {
      "lat": 40.889466806, 
      "lon": 29.250416257, 
      "name": "Dolayoba G\u00f6zda\u011f\u0131 Camii"
    }, 
    {
      "lat": 41.044524197, 
      "lon": 28.935494202, 
      "name": "Silahi Mehmet Efendi Camii"
    }, 
    {
      "lat": 41.0503383290001, 
      "lon": 28.929795669, 
      "name": "Kas\u0131m \u00c7avu\u015f Camii"
    }, 
    {
      "lat": 41.031642209, 
      "lon": 28.455818967, 
      "name": "Kumburgaz Merkez Camii"
    }, 
    {
      "lat": 41.0250894390001, 
      "lon": 28.6894819080001, 
      "name": "Hz. \u00d6mer Camii"
    }, 
    {
      "lat": 41.029977493, 
      "lon": 28.980032915, 
      "name": "Ekmek\u00e7iba\u015f\u0131 Alia\u011fa Camii"
    }, 
    {
      "lat": 41.0320612470001, 
      "lon": 28.9809831210001, 
      "name": "Muhittin Molla Fenari Camii"
    }, 
    {
      "lat": 40.9734352350001, 
      "lon": 29.2676455370001, 
      "name": "Ahmet Yesevi Camii"
    }, 
    {
      "lat": 40.9414135820001, 
      "lon": 29.1300739610001, 
      "name": "Hatime Ali Camii"
    }, 
    {
      "lat": 41.0220049280001, 
      "lon": 28.9434093850001, 
      "name": "Mesih Ali Pa\u015fa Camii"
    }, 
    {
      "lat": 40.9930997180001, 
      "lon": 29.098704825, 
      "name": "M\u00fcminderesi Camii"
    }, 
    {
      "lat": 41.0334890140001, 
      "lon": 29.06424557, 
      "name": "Esentepe Camii"
    }, 
    {
      "lat": 41.011846398, 
      "lon": 29.0728882230001, 
      "name": "Hz. Muhammed Camii"
    }, 
    {
      "lat": 40.9934826160001, 
      "lon": 29.078776874, 
      "name": "Libadiye Camii"
    }, 
    {
      "lat": 41.0258695950001, 
      "lon": 28.823866477, 
      "name": "G\u00fcne\u015fli Hatipo\u011flu Camii"
    }, 
    {
      "lat": 41.009537972, 
      "lon": 29.081515902, 
      "name": "Hac\u0131 Mehmet Efendi Camii"
    }, 
    {
      "lat": 40.9951599680001, 
      "lon": 28.836701249, 
      "name": "Sel\u00e7uk Hatun Camii"
    }, 
    {
      "lat": 41.053814856, 
      "lon": 29.026966497, 
      "name": "Ne\u015feta\u011fa Camii"
    }, 
    {
      "lat": 41.0717609610001, 
      "lon": 28.8573983480001, 
      "name": "Hz. Ali Camii"
    }, 
    {
      "lat": 41.0500507470001, 
      "lon": 29.1196178710001, 
      "name": "Hekimba\u015f\u0131 Kocatepe Camii"
    }, 
    {
      "lat": 41.1630076590001, 
      "lon": 28.6082421250001, 
      "name": "Telli Hac\u0131 Haydar \u015eahin Camii"
    }, 
    {
      "lat": 41.018450751, 
      "lon": 29.027645014, 
      "name": "Murat Reis Camii"
    }, 
    {
      "lat": 40.9766010330001, 
      "lon": 29.147925409, 
      "name": "Medine Mescidi"
    }, 
    {
      "lat": 41.063893561, 
      "lon": 28.853257689, 
      "name": "Ahi Evren  Camii"
    }, 
    {
      "lat": 41.1856976180001, 
      "lon": 28.7665736110001, 
      "name": "Bo\u011fazk\u00f6y Merkez 2 Camii"
    }, 
    {
      "lat": 41.0255848040001, 
      "lon": 28.856951672, 
      "name": "Ye\u015filba\u011f Ulu Camii"
    }, 
    {
      "lat": 41.059447871, 
      "lon": 28.852825394, 
      "name": "Y\u00fczy\u0131l Merkez Camii"
    }, 
    {
      "lat": 41.0090341480001, 
      "lon": 29.167052212, 
      "name": "Esen\u015fehir Fevzi \u00c7akmak Camii"
    }, 
    {
      "lat": 41.008109829, 
      "lon": 29.0761424560001, 
      "name": "Albayrak Camii"
    }, 
    {
      "lat": 40.998823047, 
      "lon": 28.830194637, 
      "name": "Aksa Camii"
    }, 
    {
      "lat": 41.0036998730001, 
      "lon": 29.1179634490001, 
      "name": " \u00c7akmak Bed\u00fczaman Camii"
    }, 
    {
      "lat": 41.2169950100001, 
      "lon": 28.74543672, 
      "name": "\u0130mrahor Mahallesi Camii"
    }, 
    {
      "lat": 41.008833855, 
      "lon": 28.856021739, 
      "name": "So\u011fanl\u0131 Hazreti \u00d6mer Camii"
    }, 
    {
      "lat": 41.0392604840001, 
      "lon": 28.8543202870001, 
      "name": "Sancaktepe Camii"
    }, 
    {
      "lat": 41.040607161, 
      "lon": 28.8602003240001, 
      "name": "Tabya Sultan \u015eehmuz Camii"
    }, 
    {
      "lat": 41.013388949, 
      "lon": 29.0978244450001, 
      "name": "Ulu Camii"
    }, 
    {
      "lat": 40.979175695, 
      "lon": 28.8590964470001, 
      "name": "Atak\u00f6y \u00d6mer Duruk Camii"
    }, 
    {
      "lat": 40.9875902260001, 
      "lon": 28.8773806470001, 
      "name": "Ye\u015fil Camii"
    }, 
    {
      "lat": 41.0700061570001, 
      "lon": 28.821697176, 
      "name": "\u0130sto\u00e7 Yeni Camii"
    }, 
    {
      "lat": 40.999328097, 
      "lon": 29.0810947950001, 
      "name": "T\u00fcrkistanl\u0131lar Camii"
    }, 
    {
      "lat": 41.184927757, 
      "lon": 28.754923284, 
      "name": "Anadolu Fetih Camii"
    }, 
    {
      "lat": 41.0321685640001, 
      "lon": 28.846349628, 
      "name": "Kirazl\u0131 Kuba Camii"
    }, 
    {
      "lat": 41.0243899220001, 
      "lon": 29.0151433140001, 
      "name": "Geredeli \u00c7elebi Camii"
    }, 
    {
      "lat": 41.1896687940001, 
      "lon": 28.750765275, 
      "name": "Hz.Ebubekir Camii"
    }, 
    {
      "lat": 41.046846569, 
      "lon": 29.102044683, 
      "name": "Kaz\u0131m Karabekir Top A\u011fac\u0131 Camii"
    }, 
    {
      "lat": 41.0278906710001, 
      "lon": 29.0191638330001, 
      "name": "Hac\u0131 Hesna Hatun Camii"
    }, 
    {
      "lat": 41.0142197540001, 
      "lon": 29.168026502, 
      "name": "Yavuz  Selim Camii"
    }, 
    {
      "lat": 40.9880928320001, 
      "lon": 29.1692148390001, 
      "name": "Mehmet Ali Tombul Camii"
    }, 
    {
      "lat": 41.032939157, 
      "lon": 28.840678955, 
      "name": "Uhud (Kirazl\u0131 Orta) Camii"
    }, 
    {
      "lat": 40.878458161, 
      "lon": 29.0952621230001, 
      "name": "Heybeliada Camii"
    }, 
    {
      "lat": 41.022173981, 
      "lon": 29.064029368, 
      "name": "K\u0131s\u0131kl\u0131 Abdullah A\u011fa Camii"
    }, 
    {
      "lat": 41.042689168, 
      "lon": 29.0429106870001, 
      "name": "Beylerbey\u0131 Abdullah A\u011fa Camii"
    }, 
    {
      "lat": 41.040839019, 
      "lon": 29.1085123610001, 
      "name": "\u0130nk\u0131lap  Mevlana Camii"
    }, 
    {
      "lat": 41.0076200760001, 
      "lon": 29.161505972, 
      "name": "Modoko Camii"
    }, 
    {
      "lat": 41.012275178, 
      "lon": 28.9689937360001, 
      "name": "Tarak\u00e7\u0131lar Daye Hatun Camii"
    }, 
    {
      "lat": 41.0050051060001, 
      "lon": 29.0401602370001, 
      "name": "Ahmet S\u00fct Camii"
    }, 
    {
      "lat": 41.0950252920001, 
      "lon": 29.0504563010001, 
      "name": "Baltaliman\u0131 Merkez Camii"
    }, 
    {
      "lat": 41.0361072900001, 
      "lon": 28.7873812570001, 
      "name": "Halkal\u0131 Merkez Camii"
    }, 
    {
      "lat": 40.9926489580001, 
      "lon": 29.2326363130001, 
      "name": "Samand\u0131ra Mescidi Aksa Camii"
    }, 
    {
      "lat": 41.069504669, 
      "lon": 28.2558034840001, 
      "name": "Esentepe Camii"
    }, 
    {
      "lat": 41.0744265550001, 
      "lon": 28.7539707890001, 
      "name": "Kayaba\u015f\u0131 Bayramtepe Huzur Camii"
    }, 
    {
      "lat": 40.924767795, 
      "lon": 29.2088314150001, 
      "name": "Veysel Karani Camii"
    }, 
    {
      "lat": 40.892133416, 
      "lon": 29.2214588950001, 
      "name": "Topselvi Hac\u0131 Ahmet Camii"
    }, 
    {
      "lat": 41.0259004160001, 
      "lon": 28.9462618490001, 
      "name": "Beyce\u011fiz Camii"
    }, 
    {
      "lat": 41.0223918940001, 
      "lon": 28.9524430750001, 
      "name": "Mustafa Muslihittin Yarhisar Camii"
    }, 
    {
      "lat": 41.0185543920001, 
      "lon": 28.957052796, 
      "name": "\u00dcmm\u00fc G\u00fcls\u00fcm Camii \u00c7ivizade Mescidi"
    }, 
    {
      "lat": 41.1410478720001, 
      "lon": 28.46534074, 
      "name": "Ali Pa\u015fa Camii"
    }, 
    {
      "lat": 41.129237188, 
      "lon": 29.0968474740001, 
      "name": "G\u00fcm\u00fc\u015fsuyu Merkez Camii"
    }, 
    {
      "lat": 41.029053893, 
      "lon": 28.8694134830001, 
      "name": "Tekstil Sanayi Camii"
    }, 
    {
      "lat": 41.072774129, 
      "lon": 29.0018816300001, 
      "name": "Sefer Dursun Camii"
    }, 
    {
      "lat": 41.032500569, 
      "lon": 29.1727824750001, 
      "name": "\u00c7ekmek\u00f6y Ensar Camii"
    }, 
    {
      "lat": 40.9726936760001, 
      "lon": 29.0857540210001, 
      "name": "Mustafa Nazmi Ersin Camii"
    }, 
    {
      "lat": 40.9962533720001, 
      "lon": 29.07496043, 
      "name": "Mimar Sinan Camii"
    }, 
    {
      "lat": 41.053775226, 
      "lon": 29.0622270170001, 
      "name": "Huzurtepe Camii"
    }, 
    {
      "lat": 41.008631112, 
      "lon": 28.819376166, 
      "name": "Yenibosna Siteler Camii"
    }, 
    {
      "lat": 41.009175515, 
      "lon": 29.012895262, 
      "name": "Defterdar Tahir Efendi(Harem) Camii"
    }, 
    {
      "lat": 41.0093504060001, 
      "lon": 28.839196341, 
      "name": "Mevlana Camii"
    }, 
    {
      "lat": 41.0540721340001, 
      "lon": 28.7274353770001, 
      "name": "H\u00fcseyin Aldemir Camii"
    }, 
    {
      "lat": 40.9786061290001, 
      "lon": 28.875173225, 
      "name": "Bak\u0131rk\u00f6y \u00c7ar\u015f\u0131 Camii"
    }, 
    {
      "lat": 41.0232496780001, 
      "lon": 29.0873853680001, 
      "name": "Mustafa Avni Camii"
    }, 
    {
      "lat": 41.0069490760001, 
      "lon": 28.841803687, 
      "name": "\u00dc\u00e7evler Camii"
    }, 
    {
      "lat": 41.015892869, 
      "lon": 29.0219456310001, 
      "name": "Arakiyeci Hac\u0131 Cafera\u011fa Camii"
    }, 
    {
      "lat": 40.9857250960001, 
      "lon": 29.133989608, 
      "name": "Atat\u00fcrk Mahallesi Fevzi \u00c7akmak Camii"
    }, 
    {
      "lat": 41.044707601, 
      "lon": 28.8380746760001, 
      "name": "Osmangazi  Camii"
    }, 
    {
      "lat": 41.0051939460001, 
      "lon": 28.85572553, 
      "name": "Ulubatl\u0131 Hasan Camii"
    }, 
    {
      "lat": 41.346235037, 
      "lon": 28.6834191140001, 
      "name": "Karaburun Merkez Camii"
    }, 
    {
      "lat": 41.0313797430001, 
      "lon": 29.105499502, 
      "name": "Necat Camii"
    }, 
    {
      "lat": 41.060784749, 
      "lon": 28.818947135, 
      "name": "Ulubatl\u0131 Hasan Camii"
    }, 
    {
      "lat": 41.026383841, 
      "lon": 29.1322135780001, 
      "name": "M\u00fczdelife Camii"
    }, 
    {
      "lat": 41.273882922, 
      "lon": 28.6615963720001, 
      "name": "Baklal\u0131 K\u00f6y\u00fc Camii"
    }, 
    {
      "lat": 41.0451327970001, 
      "lon": 29.0983258410001, 
      "name": "Kaz\u0131m Karabekir Sab\u0131r Camii"
    }, 
    {
      "lat": 41.0123751260001, 
      "lon": 29.0582378870001, 
      "name": "Nimet Arpac\u0131 Camii"
    }, 
    {
      "lat": 41.006976642, 
      "lon": 28.82744569, 
      "name": "Molla G\u00fcrani Camii"
    }, 
    {
      "lat": 41.015824321, 
      "lon": 28.9202549550001, 
      "name": "Merkez Efendi Camii"
    }, 
    {
      "lat": 41.0280569720001, 
      "lon": 29.113513251, 
      "name": "Toya Mescidi"
    }, 
    {
      "lat": 41.044771274, 
      "lon": 28.7572203830001, 
      "name": "Veysel Karani Camii"
    }, 
    {
      "lat": 41.014357068, 
      "lon": 28.9344252590001, 
      "name": "Sara\u00e7 Do\u011fan Camii"
    }, 
    {
      "lat": 41.0124526220001, 
      "lon": 28.9678744730001, 
      "name": "Mercana\u011fa Camii"
    }, 
    {
      "lat": 40.890435858, 
      "lon": 29.2700986500001, 
      "name": "Hac\u0131 Hasan Camii"
    }, 
    {
      "lat": 40.898223328, 
      "lon": 29.2383660580001, 
      "name": "\u00c7\u0131nardere Yeni Camii"
    }, 
    {
      "lat": 41.0082476160001, 
      "lon": 28.971732542, 
      "name": "K\u00f6pr\u00fcl\u00fc Mehmet Pa\u015fa Camii"
    }, 
    {
      "lat": 41.029043341, 
      "lon": 28.979245156, 
      "name": "Bostanc\u0131 Camii"
    }, 
    {
      "lat": 40.9757085210001, 
      "lon": 29.253910736, 
      "name": "Abdurrahman G\u00fcrses Camii"
    }, 
    {
      "lat": 40.9719378070001, 
      "lon": 29.095626716, 
      "name": "Kozyata\u011f\u0131 Mehmet \u00c7avu\u015f Camii"
    }, 
    {
      "lat": 41.0896529400001, 
      "lon": 28.8791027870001, 
      "name": "Mehmet Akif Ersoy Camii"
    }, 
    {
      "lat": 41.03780061, 
      "lon": 28.7973714300001, 
      "name": "Halkal\u0131 \u0130badullah Camii"
    }, 
    {
      "lat": 41.0034732840001, 
      "lon": 28.6660059750001, 
      "name": "Bak\u0131rc\u0131lar Sanayi Sitesi Camii"
    }, 
    {
      "lat": 41.0094353640001, 
      "lon": 28.94661868, 
      "name": "Hac\u0131 Bayram Kaftani Camii"
    }, 
    {
      "lat": 41.015100025, 
      "lon": 28.895922399, 
      "name": "Uhud Camii"
    }, 
    {
      "lat": 41.2125959580001, 
      "lon": 28.7239789700001, 
      "name": "Mare\u015fal Fevzi \u00c7akmak Camii"
    }, 
    {
      "lat": 41.133992436, 
      "lon": 28.8583957540001, 
      "name": "Habibler Bilal-\u0130 Haba\u015fi Camii"
    }, 
    {
      "lat": 41.0143506590001, 
      "lon": 28.938594407, 
      "name": "L\u00fctuf Pa\u015fa Camii"
    }, 
    {
      "lat": 41.04381012, 
      "lon": 28.9263808540001, 
      "name": "\u015eevki Bey Camii"
    }, 
    {
      "lat": 41.0285365410001, 
      "lon": 28.9487099610001, 
      "name": "Tevkii Cafer  Haziresi Ve Camii"
    }, 
    {
      "lat": 41.0052389100001, 
      "lon": 28.9657671210001, 
      "name": "\u00c7ad\u0131rc\u0131 Ahmet \u00c7elebi Camii"
    }, 
    {
      "lat": 41.012807964, 
      "lon": 28.966116388, 
      "name": "Alipa\u015fa Camii"
    }, 
    {
      "lat": 41.4768942650001, 
      "lon": 28.2954151540001, 
      "name": "Yal\u0131k\u00f6y Camii"
    }, 
    {
      "lat": 41.0178676240001, 
      "lon": 28.8799253940001, 
      "name": "S\u00f6\u011f\u00fctl\u00fc Yayla Camii"
    }, 
    {
      "lat": 41.058125073, 
      "lon": 28.8642166540001, 
      "name": "Muhammediye Camii"
    }, 
    {
      "lat": 41.0609461810001, 
      "lon": 28.965013647, 
      "name": "Merkez Camii"
    }, 
    {
      "lat": 41.036998323, 
      "lon": 28.907358561, 
      "name": "Hay\u0131rseverler Camii"
    }, 
    {
      "lat": 41.059640444, 
      "lon": 28.8971747530001, 
      "name": "Hac\u0131 M\u00fcmin Camii"
    }, 
    {
      "lat": 40.992258797, 
      "lon": 29.044440217, 
      "name": "\u0130hsaniye Camii"
    }, 
    {
      "lat": 41.273095728, 
      "lon": 28.4855585230001, 
      "name": "Da\u011fyenice K\u00f6y\u00fc Camii"
    }, 
    {
      "lat": 41.017298236, 
      "lon": 29.0510307800001, 
      "name": "Erzurum Sitesi Camii"
    }, 
    {
      "lat": 41.025877979, 
      "lon": 29.0867127510001, 
      "name": "Santral \u00dcmraniye Merkez Camii"
    }, 
    {
      "lat": 41.0426127060001, 
      "lon": 29.1158174, 
      "name": "\u00c7\u0131naralt\u0131 Camii"
    }, 
    {
      "lat": 41.0033317360001, 
      "lon": 28.8421941170001, 
      "name": "Hazreti Enes Camii"
    }, 
    {
      "lat": 41.037834112, 
      "lon": 28.9346427900001, 
      "name": "Fethi \u00c7elebi Camii"
    }, 
    {
      "lat": 40.97510441, 
      "lon": 29.1432465230001, 
      "name": "Uhut Camii"
    }, 
    {
      "lat": 41.0104873560001, 
      "lon": 28.9110997770001, 
      "name": "Be\u015fevler Sultan Murat Camii"
    }, 
    {
      "lat": 41.0332249790001, 
      "lon": 29.0567541450001, 
      "name": "K\u0131ro\u011flu Camii"
    }, 
    {
      "lat": 41.024676927, 
      "lon": 29.010889659, 
      "name": "Rumi Mehmetpa\u015fa Camii"
    }, 
    {
      "lat": 41.0141751150001, 
      "lon": 29.1002100380001, 
      "name": "Hz. Hamza Camii"
    }, 
    {
      "lat": 41.036903281, 
      "lon": 29.030553721, 
      "name": "Kuzguncuk Camii"
    }, 
    {
      "lat": 41.008354932, 
      "lon": 28.8517511320001, 
      "name": "Hac\u0131 Mehmet Fatma Hatun Camii"
    }, 
    {
      "lat": 40.9957651880001, 
      "lon": 29.08338717, 
      "name": "\u00d6rnek Merkez Camii"
    }, 
    {
      "lat": 41.1073473800001, 
      "lon": 28.7845694380001, 
      "name": "M\u00fcderris Halil Hilmi Camii"
    }, 
    {
      "lat": 41.009383154, 
      "lon": 28.867082522, 
      "name": "Mehdiyye Camii"
    }, 
    {
      "lat": 41.009579687, 
      "lon": 29.0165115390001, 
      "name": "B\u00fcy\u00fck Selimiye Camii"
    }, 
    {
      "lat": 41.002962499, 
      "lon": 29.079726523, 
      "name": "Zekeriyabey Camii"
    }, 
    {
      "lat": 41.0193271570001, 
      "lon": 28.90638198, 
      "name": "Teknik Oto Sanayi Camii"
    }, 
    {
      "lat": 41.1840948670001, 
      "lon": 28.747342186, 
      "name": "Arnavutk\u00f6y \u0130kinci Camii"
    }, 
    {
      "lat": 41.064114062, 
      "lon": 29.0551948520001, 
      "name": "Vanik\u00f6y Camii"
    }, 
    {
      "lat": 41.0502793370001, 
      "lon": 28.8427554790001, 
      "name": "Seyit \u00c7avu\u015f (Hac\u0131 Veyis Turan) Camii"
    }, 
    {
      "lat": 41.0479559890001, 
      "lon": 29.0026348440001, 
      "name": "Yeralt\u0131 Camii"
    }, 
    {
      "lat": 40.9974622620001, 
      "lon": 28.8489779020001, 
      "name": "Ulu Camii"
    }, 
    {
      "lat": 40.990038509, 
      "lon": 29.0252881760001, 
      "name": "Bayezit Keth\u00fcda Camii"
    }, 
    {
      "lat": 41.0217122490001, 
      "lon": 29.0134832740001, 
      "name": "Ahmet \u00c7elebi Camii"
    }, 
    {
      "lat": 41.2018914970001, 
      "lon": 28.7142920430001, 
      "name": "Ta\u015foluk Ba\u011flar Camii"
    }, 
    {
      "lat": 40.979903017, 
      "lon": 28.879933527, 
      "name": "Yenimahalle Camii"
    }, 
    {
      "lat": 40.989452183, 
      "lon": 28.8742590740001, 
      "name": "\u00c7aml\u0131k Camii"
    }, 
    {
      "lat": 40.984521242, 
      "lon": 29.0867411130001, 
      "name": "Arapgirli H.Avni Camii"
    }, 
    {
      "lat": 41.0355429360001, 
      "lon": 28.8250661270001, 
      "name": "Kaz\u0131m \u00d6m\u00fcrl\u00fco\u011flu Camii"
    }, 
    {
      "lat": 41.0667148110001, 
      "lon": 29.020022592, 
      "name": "Camii"
    }, 
    {
      "lat": 40.9884636950001, 
      "lon": 28.707643493, 
      "name": "Cihangir Camii"
    }, 
    {
      "lat": 41.022803563, 
      "lon": 28.9586613330001, 
      "name": "\u0130bni Meddas Salihpa\u015fa Camii"
    }, 
    {
      "lat": 40.8830098120001, 
      "lon": 29.068492717, 
      "name": "Burgazada Camii"
    }, 
    {
      "lat": 41.2046256400001, 
      "lon": 28.7695859400001, 
      "name": "Bolluca Kuba Camii"
    }, 
    {
      "lat": 41.026910974, 
      "lon": 29.0735428990001, 
      "name": "Sefa Tepesi Camii"
    }, 
    {
      "lat": 41.048134099, 
      "lon": 29.1072977370001, 
      "name": "Kaz\u0131m Karabekir G\u00fcney Camii"
    }, 
    {
      "lat": 41.096186388, 
      "lon": 28.8049116060001, 
      "name": "Camii"
    }, 
    {
      "lat": 40.9940376100001, 
      "lon": 28.7128890120001, 
      "name": "\u00dcniversite Mah. Merkez Camii"
    }, 
    {
      "lat": 41.0142867600001, 
      "lon": 28.9172899330001, 
      "name": "Mevlevihane Camii"
    }, 
    {
      "lat": 41.1967758750001, 
      "lon": 28.7161743880001, 
      "name": "Ta\u015foluk Merkez Camii"
    }, 
    {
      "lat": 41.0395079670001, 
      "lon": 29.0344351210001, 
      "name": "\u00dcryanizade  Camii"
    }, 
    {
      "lat": 41.0373660050001, 
      "lon": 29.0608827680001, 
      "name": "Kirazl\u0131tepe B\u00fcy\u00fck Camii"
    }, 
    {
      "lat": 41.0107167260001, 
      "lon": 28.8448982300001, 
      "name": "Kocasinan Siteler Camii"
    }, 
    {
      "lat": 41.0493974180001, 
      "lon": 29.0099599180001, 
      "name": "Y\u0131ld\u0131z Hamidiye Camii"
    }, 
    {
      "lat": 41.0132832470001, 
      "lon": 29.061277933, 
      "name": "Suba\u015f\u0131 Camii"
    }, 
    {
      "lat": 40.9875688000001, 
      "lon": 29.147729681, 
      "name": "Ashab-\u0131 Kehf Camii"
    }, 
    {
      "lat": 41.001617724, 
      "lon": 28.909406253, 
      "name": "Bat\u0131 Trakya Camii"
    }, 
    {
      "lat": 40.980027255, 
      "lon": 29.1271927220001, 
      "name": "\u0130mam-\u0131 Azam(K\u00fc\u00e7\u00fck Bakkalk\u00f6y Merkez) Camii"
    }, 
    {
      "lat": 40.993207211, 
      "lon": 28.8385194360001, 
      "name": "Makam-\u0131 \u0130brahim Camii"
    }, 
    {
      "lat": 41.0410111190001, 
      "lon": 28.820483165, 
      "name": "Ya\u015far Acar Camii"
    }, 
    {
      "lat": 41.0391204430001, 
      "lon": 29.082046608, 
      "name": "Yavuzt\u00fcrk Mahallesi Camii"
    }, 
    {
      "lat": 41.022395804, 
      "lon": 28.9100064030001, 
      "name": "G\u00fcm\u00fc\u015f Suyu Camii"
    }, 
    {
      "lat": 41.030728552, 
      "lon": 29.075185735, 
      "name": "Ferah Mahallesi Merkez Camii"
    }, 
    {
      "lat": 41.0317304320001, 
      "lon": 28.827384895, 
      "name": "G\u00fcne\u015fli Merkez Camii"
    }, 
    {
      "lat": 41.0196845570001, 
      "lon": 29.0827883310001, 
      "name": "Amine Hatun Camii"
    }, 
    {
      "lat": 41.0286808060001, 
      "lon": 29.163194328, 
      "name": "Bilali Habe\u015fi Camii"
    }, 
    {
      "lat": 40.9846266060001, 
      "lon": 29.2310744760001, 
      "name": "Samand\u0131ra Ebubekir S\u0131dd\u0131k Camii"
    }, 
    {
      "lat": 40.9142478840001, 
      "lon": 29.1634468770001, 
      "name": "Bal\u0131kl\u0131dere Camii"
    }, 
    {
      "lat": 41.06509528, 
      "lon": 28.9269851460001, 
      "name": "P\u0131nar Camii"
    }, 
    {
      "lat": 41.0808159110001, 
      "lon": 28.9720411930001, 
      "name": "Daye Hatun Camii"
    }, 
    {
      "lat": 41.1168597650001, 
      "lon": 29.741931069, 
      "name": "Karabeyli K\u00f6y\u00fc Man\u015far Mahallesi Camii"
    }, 
    {
      "lat": 40.902144777, 
      "lon": 29.257634329, 
      "name": "Dolayoba Veli Baba Merkez Camii"
    }, 
    {
      "lat": 40.9393541490001, 
      "lon": 29.115538359, 
      "name": "Kulluk Camii"
    }, 
    {
      "lat": 40.9168112310001, 
      "lon": 29.1492816370001, 
      "name": "Talatpa\u015fa Camii"
    }, 
    {
      "lat": 40.9882627050001, 
      "lon": 29.177213384, 
      "name": "Hac\u0131 Osman Camii"
    }, 
    {
      "lat": 41.0471956110001, 
      "lon": 28.8210648420001, 
      "name": "Hicret Camii"
    }, 
    {
      "lat": 40.984628779, 
      "lon": 29.152764957, 
      "name": "\u0130mam Buhari Camii"
    }, 
    {
      "lat": 41.020971488, 
      "lon": 29.008040798, 
      "name": "Salacak Fatih Camii"
    }, 
    {
      "lat": 41.0485491090001, 
      "lon": 28.848984887, 
      "name": "Mehmet Akif Camii"
    }, 
    {
      "lat": 41.0418465880001, 
      "lon": 28.8563061450001, 
      "name": "Mevlana Camii"
    }, 
    {
      "lat": 41.0227784750001, 
      "lon": 29.0325045880001, 
      "name": "Goncag\u00fcl Camii"
    }, 
    {
      "lat": 41.0547904160001, 
      "lon": 28.8351721290001, 
      "name": "G\u00f6ztepe Merkez Camii"
    }, 
    {
      "lat": 41.034505493, 
      "lon": 29.0736810830001, 
      "name": "Ak\u00e7akoca Camii"
    }, 
    {
      "lat": 41.004686119, 
      "lon": 29.0245915100001, 
      "name": "Numune Hastanesi Camii"
    }, 
    {
      "lat": 41.019378256, 
      "lon": 28.828488942, 
      "name": "Esentepe(\u0130mam\u0131 Azam) Camii"
    }, 
    {
      "lat": 41.002163732, 
      "lon": 29.187213951, 
      "name": "\u00d6mer  Faruk Darende Camii"
    }, 
    {
      "lat": 41.000104004, 
      "lon": 29.0464945050001, 
      "name": "Ahmet Tac\u0131 B\u00fcy\u00fckhanl\u0131 Camii"
    }, 
    {
      "lat": 41.0145341730001, 
      "lon": 28.8491270500001, 
      "name": "Mimar Sinan Camii"
    }, 
    {
      "lat": 41.027451349, 
      "lon": 29.0217487150001, 
      "name": "Mirzazade (\u015eeyh\u00fclislam Mehmet Efendi Camii)"
    }, 
    {
      "lat": 41.048739944, 
      "lon": 29.0970446800001, 
      "name": "Kaz\u0131m Karabekir \u0130mam-\u0131 Ali Camii"
    }, 
    {
      "lat": 40.871555938, 
      "lon": 29.1371752430001, 
      "name": "Kumsal Camii"
    }, 
    {
      "lat": 41.0430299540001, 
      "lon": 29.0721679910001, 
      "name": "Hz. Ali Gamame Camii"
    }, 
    {
      "lat": 40.9898407100001, 
      "lon": 29.086238274, 
      "name": "Erenler Camii"
    }, 
    {
      "lat": 41.033501605, 
      "lon": 28.6942026990001, 
      "name": "Hudeybiye Camii"
    }, 
    {
      "lat": 40.9525143540001, 
      "lon": 29.2200427760001, 
      "name": "Samand\u0131ra Mimar Sinan Camii"
    }, 
    {
      "lat": 41.1026766250001, 
      "lon": 28.903158143, 
      "name": "Ulu Camii"
    }, 
    {
      "lat": 41.055748088, 
      "lon": 28.9103826780001, 
      "name": "\u00c7ifte Minare Camii"
    }, 
    {
      "lat": 41.0205486770001, 
      "lon": 29.045506818, 
      "name": "Altunizade Camii"
    }, 
    {
      "lat": 41.0988050280001, 
      "lon": 28.8858738210001, 
      "name": "Arafat Camii"
    }, 
    {
      "lat": 41.0661772220001, 
      "lon": 28.9123734900001, 
      "name": "Ak\u015femsettin Camii"
    }, 
    {
      "lat": 41.0582198720001, 
      "lon": 28.918016962, 
      "name": "Sar\u0131g\u00f6l Camii"
    }, 
    {
      "lat": 41.0617251400001, 
      "lon": 28.9351000070001, 
      "name": "Pazari\u00e7i Saadet Camii"
    }, 
    {
      "lat": 41.0862241080001, 
      "lon": 28.913178826, 
      "name": "Kaz\u0131m Karabekir Mevlana Camii"
    }, 
    {
      "lat": 41.0326527, 
      "lon": 28.9390675870001, 
      "name": "\u00c7ak\u0131ra\u011fa Camii"
    }, 
    {
      "lat": 41.0283984930001, 
      "lon": 28.9504335820001, 
      "name": "Cafer Suba\u015f\u0131 Camii"
    }, 
    {
      "lat": 41.033150591, 
      "lon": 28.9431963870001, 
      "name": "Odun Yar\u0131c\u0131zade Camii"
    }, 
    {
      "lat": 41.0138574260001, 
      "lon": 28.949639357, 
      "name": "B\u0131\u00e7ak\u00e7\u0131 Alaaddin Camii"
    }, 
    {
      "lat": 41.031266525, 
      "lon": 28.943067265, 
      "name": "Hamam-I Muhiddin Camii"
    }, 
    {
      "lat": 41.004778011, 
      "lon": 28.9315515390001, 
      "name": "Ramazan Efendi Camii"
    }, 
    {
      "lat": 41.0216767160001, 
      "lon": 28.95591316, 
      "name": "Divitler Keklik Mehmet Efendi Camii"
    }, 
    {
      "lat": 41.0226738330001, 
      "lon": 28.9541904330001, 
      "name": "Sinana\u011fa Camii"
    }, 
    {
      "lat": 41.0880100840001, 
      "lon": 28.9926644060001, 
      "name": "Yunus Emre Camii"
    }, 
    {
      "lat": 41.094669405, 
      "lon": 28.986926924, 
      "name": "Mescidi Nur Camii"
    }, 
    {
      "lat": 41.0743140010001, 
      "lon": 28.958831317, 
      "name": "Ni\u015fanta\u015flar Camii"
    }, 
    {
      "lat": 40.9746181, 
      "lon": 29.052452069, 
      "name": "Selami \u00c7e\u015fme Camii"
    }, 
    {
      "lat": 41.0212131220001, 
      "lon": 28.8047062960001, 
      "name": "Tevfikbey Mahallesi K\u00fc\u00e7\u00fck Camii"
    }, 
    {
      "lat": 41.015960288, 
      "lon": 28.6622704850001, 
      "name": "Mehmet \u00c7o\u015fkun Camii"
    }, 
    {
      "lat": 41.000451121, 
      "lon": 28.924344768, 
      "name": "Fevziye K\u00fc\u00e7\u00fck Efendi Camii"
    }, 
    {
      "lat": 41.0169736010001, 
      "lon": 28.9549985130001, 
      "name": "H\u00fcsambey Tezgah\u00e7\u0131lar Camii"
    }, 
    {
      "lat": 41.017577961, 
      "lon": 28.9419842680001, 
      "name": "Parmakkap\u0131 Kad\u0131 Asker Mehmet Efendi Camii"
    }, 
    {
      "lat": 41.0033857220001, 
      "lon": 28.92849482, 
      "name": "S\u00fcmb\u00fcl Efendi Camii"
    }, 
    {
      "lat": 41.0128416590001, 
      "lon": 28.96226189, 
      "name": "Kaptan-\u0130 Derya \u0130brahim Pa\u015fa Camii"
    }, 
    {
      "lat": 41.0172271690001, 
      "lon": 28.9664830510001, 
      "name": "Hoca Hamza Camii"
    }, 
    {
      "lat": 41.00669055, 
      "lon": 28.9693906210001, 
      "name": "Emin Sinan Camii"
    }, 
    {
      "lat": 41.0145895220001, 
      "lon": 28.9562540220001, 
      "name": "Burmal\u0131 Mescid Camii"
    }, 
    {
      "lat": 40.9826214450001, 
      "lon": 29.0667753750001, 
      "name": "\u00c7emenzar Camii"
    }, 
    {
      "lat": 41.0212263610001, 
      "lon": 28.87268075, 
      "name": "Fetih Camii"
    }, 
    {
      "lat": 41.0268631320001, 
      "lon": 28.873926542, 
      "name": "Gen\u00e7 Osman Camii"
    }, 
    {
      "lat": 41.0095509560001, 
      "lon": 28.9688539960001, 
      "name": "Kesikba\u015f H\u00fcseyin A\u011fa Camii"
    }, 
    {
      "lat": 41.0510854980001, 
      "lon": 29.0332788420001, 
      "name": "Deftardar \u0130brahim Camii"
    }, 
    {
      "lat": 41.041300332, 
      "lon": 28.9128087340001, 
      "name": "Eminta\u015f Y\u00fcksel Sanayi Site Camii"
    }, 
    {
      "lat": 41.0387938120001, 
      "lon": 28.91206092, 
      "name": "\u00c7izmeci \u0130\u015f Merkezi Camii"
    }, 
    {
      "lat": 41.0320673900001, 
      "lon": 28.919731171, 
      "name": "Alba\u00e7a\u011flayan Sanayi Site Camii"
    }, 
    {
      "lat": 41.0539726430001, 
      "lon": 28.901973576, 
      "name": "Kartaltepe \u00c7ift \u015eerefeli Camii"
    }, 
    {
      "lat": 41.033272944, 
      "lon": 28.9015044700001, 
      "name": "Terazidere Camii"
    }, 
    {
      "lat": 40.9968523810001, 
      "lon": 29.023292741, 
      "name": "Haydarpa\u015fa Camii"
    }, 
    {
      "lat": 41.17740351, 
      "lon": 28.5040967250001, 
      "name": "\u0130zzettin K\u00f6y\u00fc Camii"
    }, 
    {
      "lat": 41.0136544430001, 
      "lon": 28.92641051, 
      "name": "Mimar Acem Camii"
    }, 
    {
      "lat": 41.22675838, 
      "lon": 28.457433737, 
      "name": "Suba\u015f\u0131 K\u00f6y\u00fc Merkez Camii"
    }, 
    {
      "lat": 41.0222668270001, 
      "lon": 28.9287049550001, 
      "name": "Fatma Sultan Camii"
    }, 
    {
      "lat": 41.0061459680001, 
      "lon": 28.6009201050001, 
      "name": "G\u00fcrp\u0131nar Merkez Camii"
    }, 
    {
      "lat": 41.368318098, 
      "lon": 28.4743023030001, 
      "name": "Hisarbeyli K\u00f6y\u00fc Camii"
    }, 
    {
      "lat": 41.048132384, 
      "lon": 28.964696175, 
      "name": "Ak\u015femsettin Camii"
    }, 
    {
      "lat": 41.23515045, 
      "lon": 29.0562968610001, 
      "name": "Demirci K\u00f6y\u00fc Camii"
    }, 
    {
      "lat": 41.073878559, 
      "lon": 29.0340151980001, 
      "name": "K\u00fclt\u00fcr Mahallesi Camii"
    }, 
    {
      "lat": 40.9548923030001, 
      "lon": 29.3352627800001, 
      "name": "Kurnak\u00f6y Camii"
    }, 
    {
      "lat": 40.8785728290001, 
      "lon": 29.2321081260001, 
      "name": "\u00c7ad\u0131rc\u0131 \u0130\u015f Han\u0131 Mescidi"
    }, 
    {
      "lat": 40.89237582, 
      "lon": 29.246997257, 
      "name": "Dolayoba Ulu Camii"
    }, 
    {
      "lat": 40.8688323820001, 
      "lon": 29.283839087, 
      "name": "Orhangazi Camii"
    }, 
    {
      "lat": 40.871052519, 
      "lon": 29.2952121700001, 
      "name": "Osmanl\u0131 Camii"
    }, 
    {
      "lat": 41.168507624, 
      "lon": 29.0352152940001, 
      "name": "B\u00fcy\u00fckdere Kocata\u015f Camii"
    }, 
    {
      "lat": 41.0398737250001, 
      "lon": 28.9341793350001, 
      "name": "Ahmet A\u011fa Camii"
    }, 
    {
      "lat": 40.8700370880001, 
      "lon": 29.2608551430001, 
      "name": "Sultan S\u00fcleyman Camii"
    }, 
    {
      "lat": 40.86697731, 
      "lon": 29.3039686750001, 
      "name": "Mevlana Camii"
    }, 
    {
      "lat": 40.9085790080001, 
      "lon": 29.0554226630001, 
      "name": "K\u0131nal\u0131ada Camii"
    }, 
    {
      "lat": 40.9556965310001, 
      "lon": 29.264115287, 
      "name": "Ebeveyn Camii"
    }, 
    {
      "lat": 41.165366276, 
      "lon": 29.0308640850001, 
      "name": "Da\u011fevleri Esentepe Camii"
    }, 
    {
      "lat": 41.0974734280001, 
      "lon": 28.7899431910001, 
      "name": "Ba\u015fak\u015fehir Hac\u0131 Simavi Camii"
    },