{
  "elements": [
    {
      "lat": "40.88468991371277", 
      "lon": "29.064339009661808", 
      "name": "Burgazada \u00d6\u011fretmen Evi Ve Ak\u015fam Sanat Okulu"
    }, 
    {
      "lat": "40.88384633264533", 
      "lon": "29.063738194842472", 
      "name": "Burgazada Sait Faik Abas\u0131yan\u0131k \u0130lkokulu"
    }, 
    {
      "lat": "40.86647752939563", 
      "lon": "29.131587354083194", 
      "name": "B\u00fcy\u00fckada \u0130mam Hatip Ortaokulu"
    }, 
    {
      "lat": "40.86936994199088", 
      "lon": "29.127789346118107", 
      "name": "B\u00fcy\u00fckada \u015eehit Murat Y\u00fcksel \u0130lkokulu"
    }, 
    {
      "lat": "40.86738623924961", 
      "lon": "29.12906339540018", 
      "name": "B\u00fcy\u00fckada 125. Y\u0131l Atat\u00fcrk Ortaokul"
    }, 
    {
      "lat": "40.87093171113019", 
      "lon": "29.13469871654047", 
      "name": "Halk E\u011fitim Merkezi"
    }, 
    {
      "lat": "40.878492586765184", 
      "lon": "29.09648260249628", 
      "name": "Heybeliada Anadolu Lisesi"
    }, 
    {
      "lat": "40.88006630852165", 
      "lon": "29.093585816760196", 
      "name": "Heybeliada \u0130lkokulu"
    }, 
    {
      "lat": "40.86777365416827", 
      "lon": "29.132096973796024", 
      "name": "H\u00fcseyin Rahmi G\u00fcrp\u0131nar \u00c7ok Programl\u0131 Lisesi"
    }, 
    {
      "lat": "41.200871707539235", 
      "lon": "28.731112090487613", 
      "name": "Ahmet Yesevi \u0130lk\u00f6\u011fretim Okulu"
    }, 
    {
      "lat": "41.19462334949229", 
      "lon": "28.72320493831171", 
      "name": "Anafartalar Ortaokulu"
    }, 
    {
      "lat": "41.6313688789059", 
      "lon": "27.975533810992374", 
      "name": "Arnavutk\u00f6y Anadolu Lisesi"
    }, 
    {
      "lat": "41.18483991922598", 
      "lon": "28.752773610491886", 
      "name": "Arnavutk\u00f6y Cumhuriyet Ortaokulu"
    }, 
    {
      "lat": "41.178305380332176", 
      "lon": "28.709675876040592", 
      "name": "Arnavutk\u00f6y Hara\u00e7\u00e7\u0131 \u0130mkb Anadolu \u0130mam Hatip Lisesi"
    }, 
    {
      "lat": "41.192927955677376", 
      "lon": "28.71174654140009", 
      "name": "Arnavutk\u00f6y K\u0131z Teknik Ve Meslek Lisesi"
    }, 
    {
      "lat": "41.184644114592686", 
      "lon": "28.741637078662052", 
      "name": "Arnavutk\u00f6y Ortaokulu"
    }, 
    {
      "lat": "41.17727982044491", 
      "lon": "28.702777234454288", 
      "name": "Arnavutk\u00f6y \u00d6zel E\u011fitim Uygulama Merkezi I. Kademe"
    }, 
    {
      "lat": "41.18330374550506", 
      "lon": "28.61186107768549", 
      "name": "Arnavutk\u00f6y Rehberlik Ve Ara\u015ft\u0131rma Merkezi"
    }, 
    {
      "lat": "41.19011027550197", 
      "lon": "28.731578794856205", 
      "name": "Arnavutk\u00f6y \u015eehit \u00c7avu\u015f Sel\u00e7uk G\u00fcrdal Yat\u0131l\u0131 B\u00f6lge Ortaokulu"
    }, 
    {
      "lat": "41.18398200799027", 
      "lon": "28.752580491442814", 
      "name": "A\u015f\u0131k Veysel \u0130lkokulu"
    }, 
    {
      "lat": "41.185863342163216", 
      "lon": "28.761490789790286", 
      "name": "Ayazma \u0130lkokulu"
    }, 
    {
      "lat": "41.18046142631112", 
      "lon": "28.77092680110468", 
      "name": "Bo\u011fazk\u00f6y Ortaokulu"
    }, 
    {
      "lat": "41.20004831463356", 
      "lon": "28.7529023565246", 
      "name": "Bolluca Ticaret Meslek Lisesi"
    }, 
    {
      "lat": "39.91765128641145", 
      "lon": "32.853463498492374", 
      "name": "Bolluca T\u00fcrk Tekstil Vakf\u0131 \u0130lkokulu"
    }, 
    {
      "lat": "41.2071356124085", 
      "lon": "28.761088458438053", 
      "name": "Bolluca T\u00fcrk Tekstil Vakf\u0131 Ortaokulu"
    }, 
    {
      "lat": "41.26231438021475", 
      "lon": "28.630019632716312", 
      "name": "Boyal\u0131k \u00d6rfi \u00c7etinkaya Ortaokulu"
    }, 
    {
      "lat": "41.1842807642373", 
      "lon": "28.735060302157535", 
      "name": "Cemal Re\u015fit Rey \u0130lkokulu"
    }, 
    {
      "lat": "41.18427268976206", 
      "lon": "28.73489936961664", 
      "name": "Cemal Re\u015fit Rey Ortaokulu"
    }, 
    {
      "lat": "41.1847410076803", 
      "lon": "28.752773610491886", 
      "name": "Cumhuriyet \u0130mam Hatip Ortaokulu"
    }, 
    {
      "lat": "41.11164292483703", 
      "lon": "28.653853742022648", 
      "name": "Deliklikaya Ortaokulu"
    }, 
    {
      "lat": "41.30732891887072", 
      "lon": "28.672875968356265", 
      "name": "Durusu H\u00fcseyin \u00d6kten Lisesi"
    }, 
    {
      "lat": "41.226488580585176", 
      "lon": "28.69003137721552", 
      "name": "Fatih \u0130lkokulu"
    }, 
    {
      "lat": "41.226520857649966", 
      "lon": "28.68998846187128", 
      "name": "Fatih Ortaokulu"
    }, 
    {
      "lat": "41.14942205871998", 
      "lon": "28.634713498492374", 
      "name": "Hac\u0131 \u015eamil \u015eayir Mesleki E\u011fitim Merkezi"
    }, 
    {
      "lat": "41.15430953326101", 
      "lon": "28.62080892695917", 
      "name": "Had\u0131mk\u00f6y \u0130lkokulu"
    }, 
    {
      "lat": "41.152808996160914", 
      "lon": "28.61960193290247", 
      "name": "Had\u0131mk\u00f6y \u00d6rfi \u00c7etinkaya Anadolu Lisesi"
    }, 
    {
      "lat": "41.15644213523661", 
      "lon": "28.61133536471857", 
      "name": "Had\u0131mk\u00f6y \u00d6rfi \u00c7etinkaya Ortaokulu"
    }, 
    {
      "lat": "41.18283541730816", 
      "lon": "28.6080630697204", 
      "name": "Had\u0131mk\u00f6y Toki Anadolu \u0130mam Hatip Lisesi"
    }, 
    {
      "lat": "41.21538432485371", 
      "lon": "28.744126168627872", 
      "name": "Halis Kutmangil \u0130lkokulu"
    }, 
    {
      "lat": "39.91765128641145", 
      "lon": "32.853463498492374", 
      "name": "Halis Kutmangil \u0130lk\u00f6\u011fretim Okulu"
    }, 
    {
      "lat": "41.21535204229224", 
      "lon": "28.74414762629999", 
      "name": "Halis Kutmangil Ortaokulu"
    }, 
    {
      "lat": "39.91765128641145", 
      "lon": "32.853463498492374", 
      "name": "Hasan Tahsin Ortaokulu"
    }, 
    {
      "lat": "41.11015555783806", 
      "lon": "28.63831838740839", 
      "name": "\u0130bb Evliya \u00c7elebi \u0130lkokulu"
    }, 
    {
      "lat": "41.110478901356416", 
      "lon": "28.638361302752628", 
      "name": "\u0130bb Evliya \u00c7elebi Ortaokulu"
    }, 
    {
      "lat": "41.18306958182521", 
      "lon": "28.61163577212824", 
      "name": "\u0130brahim \u00d6zayd\u0131n Teknik Ve End\u00fcstri Meslek Lisesi"
    }, 
    {
      "lat": "41.34026291952708", 
      "lon": "28.67800435199274", 
      "name": "Karaburun \u00d6rfi \u00c7etinikaya Ortaokulu"
    }, 
    {
      "lat": "39.91765128641145", 
      "lon": "32.853463498492374", 
      "name": "K\u00f6ro\u011flu \u0130lkokulu"
    }, 
    {
      "lat": "41.181866451785055", 
      "lon": "28.71193966044916", 
      "name": "K\u00f6ro\u011flu Ortaokulu"
    }, 
    {
      "lat": "41.21247883051125", 
      "lon": "28.725801316638126", 
      "name": "Malazgirt \u0130lkokulu"
    }, 
    {
      "lat": "41.21231741037507", 
      "lon": "28.72595152034296", 
      "name": "Malazgirt Ortaokulu"
    }, 
    {
      "lat": "41.197021045782336", 
      "lon": "28.737367001910343", 
      "name": "Mehmet Akif Ersoy \u00c7ok Programl\u0131 Lisesi"
    }, 
    {
      "lat": "41.18499938854631", 
      "lon": "28.734877911944522", 
      "name": "Mehmet Akif Ersoy Ortaokulu"
    }, 
    {
      "lat": "41.17846284676681", 
      "lon": "28.71047517432703", 
      "name": "Mehmet Zeki Obdan \u0130lkokulu"
    }, 
    {
      "lat": "41.17886256755455", 
      "lon": "28.710158673663273", 
      "name": "Mehmet Zeki Obdan Ortaokulu"
    }, 
    {
      "lat": "41.19064314122312", 
      "lon": "28.757837621112003", 
      "name": "Mimar Sinan \u0130lkokulu"
    }, 
    {
      "lat": "41.18312610416945", 
      "lon": "28.61181816234125", 
      "name": "Osman Gazi Ortaokulu"
    }, 
    {
      "lat": "41.19849837047375", 
      "lon": "28.737881986041202", 
      "name": "\u00d6rfi \u00c7etinkaya Teknik Ve End\u00fcstri Meslek Lisesi"
    }, 
    {
      "lat": "41.19895851397711", 
      "lon": "28.7638886846496", 
      "name": "Sabr\u0131 Ak\u0131n \u0130lk\u00f6\u011fretim Okulu"
    }, 
    {
      "lat": "41.15464881548895", 
      "lon": "28.674324361224307", 
      "name": "Sazl\u0131bosna Ortaokulu"
    }, 
    {
      "lat": "41.203462905849406", 
      "lon": "28.74714097156061", 
      "name": "Suatlar Anaokulu"
    }, 
    {
      "lat": "41.20308351562334", 
      "lon": "28.747580853839054", 
      "name": "Suatlar \u0130lkokulu"
    }, 
    {
      "lat": "39.91765128641145", 
      "lon": "32.853463498492374", 
      "name": "\u015eehit Er Tuncay T\u00fcrken Ortaokulu"
    }, 
    {
      "lat": "41.19113563447243", 
      "lon": "28.7294705785705", 
      "name": "\u015eehit Onba\u015f\u0131 Murat \u015eeng\u00f6z \u0130lkokulu"
    }, 
    {
      "lat": "41.19016679176889", 
      "lon": "28.729556409258976", 
      "name": "\u015eehit Onba\u015f\u0131 Murat \u015eeng\u00f6z Ortaokulu"
    }, 
    {
      "lat": "41.19522076351715", 
      "lon": "28.748010007281436", 
      "name": "\u015eeyh \u015eamil \u0130lkokulu"
    }, 
    {
      "lat": "41.19517232474527", 
      "lon": "28.748010007281436", 
      "name": "\u015eeyh \u015eamil Ortaokulu"
    }, 
    {
      "lat": "41.20891942407385", 
      "lon": "28.706092444796695", 
      "name": "Ta\u015foluk Anadolu Lisesi"
    }, 
    {
      "lat": "41.197132048113055", 
      "lon": "28.718744424719944", 
      "name": "Ta\u015foluk \u0130lkokulu"
    }, 
    {
      "lat": "41.19720672230234", 
      "lon": "28.71870419158472", 
      "name": "Ta\u015foluk Ortaokulu"
    }, 
    {
      "lat": "41.20572305735755", 
      "lon": "28.73816093577875", 
      "name": "Toki Suatlar Ortaokulu"
    }, 
    {
      "lat": "41.20837863562895", 
      "lon": "28.70543798579706", 
      "name": "Toki Ta\u015foluk  \u0130lkokulu"
    }, 
    {
      "lat": "39.91765128641145", 
      "lon": "32.853463498492374", 
      "name": "Toki Ta\u015foluk Anaokulu"
    }, 
    {
      "lat": "41.20834634961022", 
      "lon": "28.704622594256534", 
      "name": "Toki Ta\u015foluk Ortaokulu"
    }, 
    {
      "lat": "41.30065952038232", 
      "lon": "28.674410191912784", 
      "name": "Tolga Eti \u0130lkokulu"
    }, 
    {
      "lat": "41.300852962692616", 
      "lon": "28.67452820910944", 
      "name": "Tolga Eti Ortaokulu"
    }, 
    {
      "lat": "40.988497947034254", 
      "lon": "29.15167173518671", 
      "name": "Ak\u015femsettin Anaokulu"
    }, 
    {
      "lat": "40.988141609069956", 
      "lon": "29.15119966640009", 
      "name": "Ak\u015femsettin \u0130lkokulu"
    }, 
    {
      "lat": "40.988352172645286", 
      "lon": "29.151296225924625", 
      "name": "Ak\u015femsettin Ortaokulu"
    }, 
    {
      "lat": "40.9942152883014", 
      "lon": "29.086376038928165", 
      "name": "Ali Fuat Cebesoy \u0130lkokulu"
    }, 
    {
      "lat": "40.99351886814992", 
      "lon": "29.146350232501163", 
      "name": "Ali \u0130hsan Hay\u0131rl\u0131o\u011flu \u0130lkokulu"
    }, 
    {
      "lat": "40.99228796802963", 
      "lon": "29.14643606318964", 
      "name": "Ali \u0130hsan Hay\u0131rl\u0131o\u011flu Ortaokulu"
    }, 
    {
      "lat": "41.001616322303875", 
      "lon": "29.082846251864567", 
      "name": "Ali Nihat Tarlan \u0130lkokulu"
    }, 
    {
      "lat": "40.98462671779442", 
      "lon": "29.115343896289005", 
      "name": "Ata \u0130lkokulu"
    }, 
    {
      "lat": "40.979714464874895", 
      "lon": "29.125085679431095", 
      "name": "Ata\u015fehir Anadolu Lisesi"
    }, 
    {
      "lat": "40.984952041582275", 
      "lon": "29.115657806396484", 
      "name": "Ata\u015fehir D. Sabanc\u0131 Ticaret Meslek Lisesi"
    }, 
    {
      "lat": "40.99266047970167", 
      "lon": "29.110859242816105", 
      "name": "Ata\u015fehir Esatpa\u015fa Ticaret Meslek Lisesi"
    }, 
    {
      "lat": "40.97988050742771", 
      "lon": "29.12547191752924", 
      "name": "Ata\u015fehir Halk E\u011fitimi Merkezi"
    }, 
    {
      "lat": "40.9908829322394", 
      "lon": "29.15869912280573", 
      "name": "Ata\u015fehir \u0130brahim M\u00fcteferrika Teknik Ve End\u00fcstri Meslek Lisesi"
    }, 
    {
      "lat": "40.986813423328734", 
      "lon": "29.135688451666965", 
      "name": "Ata\u015fehir \u00d6zel E\u011fitim Mesleki E\u011fitim Merkezi (Okulu)"
    }, 
    {
      "lat": "41.00215476773095", 
      "lon": "29.07298108710779", 
      "name": "Ata\u015fehir R. Bayraktar Ticaret Meslek Lisesi"
    }, 
    {
      "lat": "40.99332451702721", 
      "lon": "29.075153676409855", 
      "name": "Ayd\u0131n Do\u011fan \u0130lkokulu"
    }, 
    {
      "lat": "40.97715644553235", 
      "lon": "29.1511024363233", 
      "name": "Celal Yard\u0131mc\u0131 \u0130lkokulu"
    }, 
    {
      "lat": "40.97712657691924", 
      "lon": "29.15115675105585", 
      "name": "Celal Yard\u0131mc\u0131 Ortaokulu"
    }, 
    {
      "lat": "40.988109214614106", 
      "lon": "29.141758290667667", 
      "name": "Cemile Besler \u0130lkokulu"
    }, 
    {
      "lat": "40.988076820142275", 
      "lon": "29.141758290667667", 
      "name": "Cemile Besler Ortaokulu"
    }, 
    {
      "lat": "40.992854832781966", 
      "lon": "29.157121983904972", 
      "name": "\u00c7a\u011fr\u0131bey \u0130lkokulu"
    }, 
    {
      "lat": "40.98742892736423", 
      "lon": "29.102619496722355", 
      "name": "Dr.nurettin Erk"
    }, 
    {
      "lat": "41.00587518396511", 
      "lon": "29.083307591815128", 
      "name": "Esatpa\u015fa  Anadolu \u0130mam Hatip Lisesi"
    }, 
    {
      "lat": "40.9833794532754", 
      "lon": "29.114807454486026", 
      "name": "Fahriye Vandemir Anaokulu"
    }, 
    {
      "lat": "41.0020049750839", 
      "lon": "29.07954177035822", 
      "name": "Fetih \u0130mkb \u0130lkokulu"
    }, 
    {
      "lat": "41.001924005943735", 
      "lon": "29.079391566653385", 
      "name": "Fetih \u0130mkb Ortaokulu"
    }, 
    {
      "lat": "40.985776771966734", 
      "lon": "29.09573158397211", 
      "name": "Habire Yah\u015fi Anadolu Lisesi"
    }, 
    {
      "lat": "40.967640836336805", 
      "lon": "29.108284322161808", 
      "name": "Halil Atamavc\u0131 \u0130lkokulu"
    }, 
    {
      "lat": "40.97598447200978", 
      "lon": "29.12021478786005", 
      "name": "\u0130\u00e7erenk\u00f6y Hasanleyli Ortaokulu"
    }, 
    {
      "lat": "40.998604185549894", 
      "lon": "29.079659787554874", 
      "name": "\u0130hsan Kur\u015funo\u011flu \u0130lkokulu"
    }, 
    {
      "lat": "40.99870135340023", 
      "lon": "29.079917279620304", 
      "name": "\u0130hsan Kur\u015funo\u011flu Ortaokulu"
    }, 
    {
      "lat": "40.98990202134922", 
      "lon": "29.116131124634876", 
      "name": "\u0130stanbul Bilim Ve Sanat Merkezi"
    }, 
    {
      "lat": "40.9839139981006", 
      "lon": "29.122124520678653", 
      "name": "\u0130stanbul Prof Faik Somer Spor Lisesi"
    }, 
    {
      "lat": "40.986238407789074", 
      "lon": "29.13773497714533", 
      "name": "Kadriye Faik Koparan \u0130lkokulu"
    }, 
    {
      "lat": "40.97505295336485", 
      "lon": "29.10872420444025", 
      "name": "Kanuni Sultan S\u00fcleyman \u0130lkokulu"
    }, 
    {
      "lat": "40.978989542492265", 
      "lon": "29.13796028270258", 
      "name": "Kay\u0131\u015fda\u011f\u0131 Arif Pa\u015fa \u0130lkokulu"
    }, 
    {
      "lat": "40.97907053980192", 
      "lon": "29.138067571063175", 
      "name": "Kay\u0131\u015fda\u011f\u0131 Arif Pa\u015fa Ortaokulu"
    }, 
    {
      "lat": "40.97996150364322", 
      "lon": "29.11542972697748", 
      "name": "K\u00fc\u00e7\u00fckbakkalk\u00f6y Kemal Berktan Ortaokulu"
    }, 
    {
      "lat": "40.979605119550875", 
      "lon": "29.12423810138239", 
      "name": "Lions \u00d6zel E\u011fitim Mesleki E\u011fitim Merkezi (Okulu)"
    }, 
    {
      "lat": "41.003134484216595", 
      "lon": "29.082861674566402", 
      "name": "Mehmet Rauf Anadolu Sa\u011fl\u0131k Meslek Lisesi"
    }, 
    {
      "lat": "40.989890886054106", 
      "lon": "29.153871146578922", 
      "name": "Mevlana K\u0131z Teknik Ve Meslek Lisesi"
    }, 
    {
      "lat": "40.999834967737144", 
      "lon": "29.088553992648258", 
      "name": "Mustafa Kemal Anadolu Lisesi"
    }, 
    {
      "lat": "40.98201877416956", 
      "lon": "29.182774630923404", 
      "name": "Mustafa \u00d6ncel \u0130lkokulu"
    }, 
    {
      "lat": "40.980658066990905", 
      "lon": "29.17310794963373", 
      "name": "Mustafa Zeki Demir \u0130lkokulu"
    }, 
    {
      "lat": "40.980690465107145", 
      "lon": "29.173086491961612", 
      "name": "Mustafa Zeki Demir Ortaokulu"
    }, 
    {
      "lat": "41.00326808079073", 
      "lon": "29.094079343218936", 
      "name": "Necatibey \u0130lkokulu"
    }, 
    {
      "lat": "40.976636527234696", 
      "lon": "29.11467870845331", 
      "name": "Nuri  C\u0131ng\u0131ll\u0131o\u011flu Lisesi"
    }, 
    {
      "lat": "41.00041796180438", 
      "lon": "29.0885432638122", 
      "name": "Orhan Veli Ortaokulu"
    }, 
    {
      "lat": "40.988433158456765", 
      "lon": "29.157830087084903", 
      "name": "Piri Reis \u0130lkokulu"
    }, 
    {
      "lat": "40.98843720774472", 
      "lon": "29.15783679260744", 
      "name": "Piri Reis Ortaokulu"
    }, 
    {
      "lat": "40.98926730652626", 
      "lon": "29.098134843249454", 
      "name": "Rabia Leman \u0130mam Hatip Ortaokulu"
    }, 
    {
      "lat": "40.98653806440017", 
      "lon": "29.130256978411807", 
      "name": "Sait Cordan \u0130lkokulu"
    }, 
    {
      "lat": "40.98653806440019", 
      "lon": "29.130128232379093", 
      "name": "Sait Cordan Ortaokulu"
    }, 
    {
      "lat": "39.91765128641145", 
      "lon": "32.853463498492374", 
      "name": "Sakarya \u0130lkokulu"
    }, 
    {
      "lat": "40.9893968819785", 
      "lon": "29.0974589265777", 
      "name": "Sare Selahattin Uzal \u0130lkokulu"
    }, 
    {
      "lat": "40.98938878352022", 
      "lon": "29.097544757266178", 
      "name": "Sare Selahattin Uzal Ortaokulu"
    }, 
    {
      "lat": "41.00709773409094", 
      "lon": "29.08654770030512", 
      "name": "Sosyal Meskenler Ortaokulu"
    }, 
    {
      "lat": "40.97605737291393", 
      "lon": "29.135514108080997", 
      "name": "\u015eehit \u00d6\u011fretmen Mehmet Fidan \u0130lkokulu"
    }, 
    {
      "lat": "40.97573336827871", 
      "lon": "29.13523515834345", 
      "name": "\u015eehit \u00d6\u011fretmen Mehmet Fidan Ortaokulu"
    }, 
    {
      "lat": "40.98370342035341", 
      "lon": "29.123755303759708", 
      "name": "\u015eehit \u00d6\u011fretmen Nuriye Ak Anaokulu"
    }, 
    {
      "lat": "40.98915392779671", 
      "lon": "29.131007996935977", 
      "name": "T. Emlak Bankas\u0131 Ata\u015fehir \u0130lkokulu"
    }, 
    {
      "lat": "40.989178223255145", 
      "lon": "29.131072369952335", 
      "name": "T. Emlak Bankas\u0131 Ata\u015fehir Ortaokulu"
    }, 
    {
      "lat": "40.9897937052169", 
      "lon": "29.136350957293643", 
      "name": "Teb Ata\u015fehir Anadolu Lisesi"
    }, 
    {
      "lat": "40.98869231238501", 
      "lon": "29.130278436083927", 
      "name": "T.emlak Bankas\u0131 Ata\u015fehir Anaokulu"
    }, 
    {
      "lat": "40.99023101785626", 
      "lon": "29.15644606723322", 
      "name": "Ulubatl\u0131 Hasan Mesleki E\u011fitim Merkezi"
    }, 
    {
      "lat": "40.971488760586624", 
      "lon": "29.110912886996402", 
      "name": "Yahya Kemal Beyatl\u0131 Ortaokulu"
    }, 
    {
      "lat": "40.99400474345005", 
      "lon": "29.130600301165714", 
      "name": "Yeditepe \u00d6zel E\u011fitim Meslek Lisesi"
    }, 
    {
      "lat": "40.9899657961851", 
      "lon": "29.16573992146982", 
      "name": "Yeni \u00c7aml\u0131ca Anaokulu"
    }, 
    {
      "lat": "40.99066832759511", 
      "lon": "29.159825650591984", 
      "name": "Yeni \u00c7aml\u0131ca Leman Ana \u0130mam Hatip Ortaokulu"
    }, 
    {
      "lat": "40.99076550714322", 
      "lon": "29.159761277575626", 
      "name": "Yeni \u00c7aml\u0131ca Lemanana Ortaokul"
    }, 
    {
      "lat": "39.91765128641145", 
      "lon": "32.853463498492374", 
      "name": "Yenisahra \u0130mam Hatip Ortaokulu"
    }, 
    {
      "lat": "40.989182272497374", 
      "lon": "29.086697904009952", 
      "name": "Yenisahra \u00d6\u011fretmen Duriye Nuriye End\u00fcr\u00fcst Ortaokulu"
    }, 
    {
      "lat": "40.99300059721616", 
      "lon": "29.148474542040958", 
      "name": "Yunus Emre \u0130\u015fitme Engelliler  \u0130lkokulu"
    }, 
    {
      "lat": "40.99304918528923", 
      "lon": "29.148474542040958", 
      "name": "Yunus Emre \u0130\u015fitme Engelliler  Ortaokulu"
    }, 
    {
      "lat": "40.982788209255766", 
      "lon": "28.725554553408756", 
      "name": "Abdulkadir Uzt\u00fcrk \u0130lkokulu"
    }, 
    {
      "lat": "40.98257762791384", 
      "lon": "28.72520586623682", 
      "name": "Abdulkadir Uzt\u00fcrk Ortaokulu"
    }, 
    {
      "lat": "41.015412092474975", 
      "lon": "28.702112046618595", 
      "name": "Ali Karay \u0130lkokulu"
    }, 
    {
      "lat": "40.98124123064781", 
      "lon": "28.7474091924621", 
      "name": "Alsancak \u0130lkokulu"
    }, 
    {
      "lat": "40.9808848534702", 
      "lon": "28.747323361773624", 
      "name": "Alsancak Ortaokulu"
    }, 
    {
      "lat": "39.91765128641145", 
      "lon": "32.853463498492374", 
      "name": "Ambarl\u0131 \u0130lkokulu"
    }, 
    {
      "lat": "40.975295959496854", 
      "lon": "28.718870488543643", 
      "name": "Ambarl\u0131 Selahattin Ve M\u00fczeyyen Ka\u00e7aker Anaokulu"
    }, 
    {
      "lat": "40.9725013349343", 
      "lon": "28.71425708903803", 
      "name": "As\u0131m Ve Nurhan Kocab\u0131y\u0131k \u00d6\u011fretmenevi Ve Ak\u015fam Sanat Okulu"
    }, 
    {
      "lat": "40.9761343237809", 
      "lon": "28.724878636737003", 
      "name": "Atat\u00fcrk \u0130lkokulu"
    }, 
    {
      "lat": "41.00104143586445", 
      "lon": "28.703807202716007", 
      "name": "Avc\u0131lar Anadolu \u0130mam Hatip Lisesi"
    }, 
    {
      "lat": "40.99157533114038", 
      "lon": "28.711424676318302", 
      "name": "Avc\u0131lar Anadolu Lisesi"
    }, 
    {
      "lat": "41.00310614551449", 
      "lon": "28.701897469897403", 
      "name": "Avc\u0131lar \u00d6zel E\u011fitim Uygulama Merkezi I. Kademe"
    }, 
    {
      "lat": "41.00311221809451", 
      "lon": "28.70190015210642", 
      "name": "Avc\u0131lar \u00d6zel E\u011fitim Uygulama Merkezi I\u0131. Kademe"
    }, 
    {
      "lat": "40.98183653822914", 
      "lon": "28.716528920073642", 
      "name": "Avc\u0131lar Rehberlik Ve Ara\u015ft\u0131rma Merkezi"
    }, 
    {
      "lat": "40.98172719642312", 
      "lon": "28.711322752375736", 
      "name": "Avc\u0131lar Saide Zorlu Tic.mes.lisesi"
    }, 
    {
      "lat": "40.98375201527775", 
      "lon": "28.724106160540714", 
      "name": "Avc\u0131lar Teknik Ve End\u00fcstri Meslek Lisesi"
    }, 
    {
      "lat": "41.01292477636172", 
      "lon": "28.70297035350336", 
      "name": "Avc\u0131lar Ticaret Meslek Lisesi"
    }, 
    {
      "lat": "40.98386540329554", 
      "lon": "28.73067220820917", 
      "name": "Borusan Oto Zehra"
    }, 
    {
      "lat": "40.9836710237172", 
      "lon": "28.730586377520694", 
      "name": "Borusan Oto Zehra"
    }, 
    {
      "lat": "41.01826156296298", 
      "lon": "28.706296292681827", 
      "name": "Cumhuriyet \u0130lkokulu"
    }, 
    {
      "lat": "41.018180613797966", 
      "lon": "28.706425038714542", 
      "name": "Cumhuriyet Ortaokulu"
    }, 
    {
      "lat": "40.97495575066138", 
      "lon": "28.73419126643671", 
      "name": "Denizk\u00f6\u015fkler \u0130lkokulu"
    }, 
    {
      "lat": "41.01083001500791", 
      "lon": "28.71069511546625", 
      "name": "Firuzk\u00f6y \u0130lkokulu"
    }, 
    {
      "lat": "40.98157938221212", 
      "lon": "28.739630786318912", 
      "name": "G\u00fcm\u00fc\u015fpala Anadolu Sa\u011fl\u0131k Meslek Lisesi"
    }, 
    {
      "lat": "40.980042499759264", 
      "lon": "28.736337033648624", 
      "name": "G\u00fcm\u00fc\u015fpala Anaokulu"
    }, 
    {
      "lat": "40.98078765936028", 
      "lon": "28.735264150042667", 
      "name": "G\u00fcm\u00fc\u015fpala \u0130lkokulu"
    }, 
    {
      "lat": "40.98152471111858", 
      "lon": "28.73972198142542", 
      "name": "G\u00fcm\u00fc\u015fpala Lisesi"
    }, 
    {
      "lat": "40.975668567160675", 
      "lon": "28.734759894747867", 
      "name": "G\u00fcng\u00f6r Tekiner Ortaokulu"
    }, 
    {
      "lat": "40.99751913482385", 
      "lon": "28.703356591601505", 
      "name": "Haydar Ak\u0131n Teknik Ve End\u00fcstri Meslek Lisesi"
    }, 
    {
      "lat": "39.91765128641145", 
      "lon": "32.853463498492374", 
      "name": "\u0130hkib Avc\u0131lar K\u0131z Teknik Ve Meslek Lisesi"
    }, 
    {
      "lat": "40.97641377617461", 
      "lon": "28.709922639269962", 
      "name": "\u0130n\u00f6n\u00fc \u0130lkokulu"
    }, 
    {
      "lat": "40.97642997627708", 
      "lon": "28.709922639269962", 
      "name": "\u0130n\u00f6n\u00fc Ortaokulu"
    }, 
    {
      "lat": "41.03213275669638", 
      "lon": "28.707243112464084", 
      "name": "\u0130stanbul B\u00fcy\u00fck\u015fehir"
    }, 
    {
      "lat": "41.060034241264226", 
      "lon": "28.715394345660343", 
      "name": "\u0130stanbul B\u00fcy\u00fck\u015fehir \u015eehit \u015eerife Bac\u0131 K\u0131z Teknik Ve Meslek Lisesi"
    }, 
    {
      "lat": "40.98365482539309", 
      "lon": "28.708088008303775", 
      "name": "Mare\u015fal Fevzi \u00c7akmak \u0130lkokulu"
    }, 
    {
      "lat": "40.98385325458866", 
      "lon": "28.708377686877384", 
      "name": "Mare\u015fal Fevzi \u00c7akmak Ortaokulu"
    }, 
    {
      "lat": "40.98049607617115", 
      "lon": "28.71045908107294", 
      "name": "Mehmet Baydar Anadolu  Lisesi"
    }, 
    {
      "lat": "40.99853940690336", 
      "lon": "28.705169764895572", 
      "name": "Mehmet Emin Horoz Teknik Ve End\u00fcstri Meslek Lisesi"
    }, 
    {
      "lat": "41.00530843117919", 
      "lon": "28.70127519740595", 
      "name": "Mehmet\u00e7ik \u0130lkokulu"
    }, 
    {
      "lat": "41.0052922381708", 
      "lon": "28.70123228206171", 
      "name": "Mehmet\u00e7ik Ortaokulu"
    }, 
    {
      "lat": "41.03296028187014", 
      "lon": "28.70724043025507", 
      "name": "Milli E\u011fitim Vakf\u0131 Nihat \u00c7andarl\u0131 Ortaokulu"
    }, 
    {
      "lat": "40.99558381344468", 
      "lon": "28.711837736506595", 
      "name": "Mustafa Kemal Pa\u015fa Ortaokulu"
    }, 
    {
      "lat": "41.057756929967645", 
      "lon": "28.728569356341495", 
      "name": "Necdet Semker Ortaokulu"
    }, 
    {
      "lat": "40.97978331183774", 
      "lon": "28.736143914599552", 
      "name": "\u00d6mer Seyfettin Ortaokulu"
    }, 
    {
      "lat": "40.983164824209865", 
      "lon": "28.724814263720646", 
      "name": "Sabanc\u0131 50. Y\u0131l Anadolu Lisesi"
    }, 
    {
      "lat": "40.98315267537391", 
      "lon": "28.72492691649927", 
      "name": "Sabanc\u0131 50. Y\u0131l Lisesi"
    }, 
    {
      "lat": "40.981018495137505", 
      "lon": "28.72880807294382", 
      "name": "Selahaddin"
    }, 
    {
      "lat": "40.98070666415929", 
      "lon": "28.739641515154972", 
      "name": "S\u00fcleyman Nazif Anadolu Lisesi"
    }, 
    {
      "lat": "41.00247459413533", 
      "lon": "28.704644051928653", 
      "name": "\u015eehit Be\u015fir Balc\u0131o\u011flu Ortaokulu"
    }, 
    {
      "lat": "41.057320065501386", 
      "lon": "28.721134272952213", 
      "name": "\u015eehit Hac\u0131 Mehmet S\u0131rma \u0130mam Hatip Ortaokulu"
    }, 
    {
      "lat": "41.0628008863787", 
      "lon": "28.733332959551944", 
      "name": "\u015eehit \u015eerife Bac\u0131 \u0130lkokulu"
    }, 
    {
      "lat": "41.06453200278018", 
      "lon": "28.70771249904169", 
      "name": "Toki Salih \u015e\u00fckriye Yolu\u00e7 \u0130lkokulu"
    }, 
    {
      "lat": "41.0011466971368", 
      "lon": "28.709557858843936", 
      "name": "Vali R\u0131dvan Yeni\u015fen Ortaokulu"
    }, 
    {
      "lat": "41.026582606350296", 
      "lon": "28.85283073558344", 
      "name": "Abdurrahman"
    }, 
    {
      "lat": "41.02426771345696", 
      "lon": "28.84027799739374", 
      "name": "Abdurrahman Ve Nermin Bilimli Teknik Ve End\u00fcstri Meslek Lisesi"
    }, 
    {
      "lat": "41.039705539189", 
      "lon": "28.83906027450098", 
      "name": "Abdurrahman"
    }, 
    {
      "lat": "41.030569737619054", 
      "lon": "28.865053562064304", 
      "name": "Akyi\u011fit Ortaokulu"
    }, 
    {
      "lat": "41.04831313445679", 
      "lon": "28.855625597376956", 
      "name": "Alaattin"
    }, 
    {
      "lat": "41.02680923484757", 
      "lon": "28.82385214938654", 
      "name": "Anafartalar \u0130lkokulu"
    }, 
    {
      "lat": "41.03999079128631", 
      "lon": "28.839741555590763", 
      "name": "Arif Nihat Asya \u0130lkokulu"
    }, 
    {
      "lat": "41.04632873350565", 
      "lon": "28.84929021968378", 
      "name": "A\u015f\u0131k Veysel Ortaokulu"
    }, 
    {
      "lat": "41.02944778066037", 
      "lon": "28.844354955096378", 
      "name": "A\u015fkaleli \u0130brahim Polat Ortaokulu"
    }, 
    {
      "lat": "41.033243539931185", 
      "lon": "28.84654363765253", 
      "name": "Atat\u00fcrk \u0130lkokulu"
    }, 
    {
      "lat": "41.033243539931206", 
      "lon": "28.84654363765253", 
      "name": "Atat\u00fcrk Ortaokulu"
    }, 
    {
      "lat": "41.03610033167185", 
      "lon": "28.822264281649722", 
      "name": "Ayd\u0131n Do\u011fan Anadolu Sa\u011fl\u0131k Meslek Lisesi"
    }, 
    {
      "lat": "41.04230715438018", 
      "lon": "28.81962498797907", 
      "name": "Ba\u011fc\u0131lar Ahi Evren Anadolu \u0130mam Hatip Lisesi"
    }, 
    {
      "lat": "41.047777089131", 
      "lon": "28.838164416690006", 
      "name": "Ba\u011fc\u0131lar Ak\u015femsettin Anadolu Lisesi"
    }, 
    {
      "lat": "41.01979957819648", 
      "lon": "28.858232704539432", 
      "name": "Ba\u011fc\u0131lar Anadolu Lisesi"
    }, 
    {
      "lat": "41.031341640998406", 
      "lon": "28.83257469310297", 
      "name": "Ba\u011fc\u0131lar Gaziosmanpa\u015fa \u0130lkokulu"
    }, 
    {
      "lat": "41.03129308115744", 
      "lon": "28.83253177775873", 
      "name": "Ba\u011fc\u0131lar Gaziosmanpa\u015fa Ortaokulu"
    }, 
    {
      "lat": "41.06081085515091", 
      "lon": "28.852412310977115", 
      "name": "Ba\u011fc\u0131lar \u0130bni Sina Anadolu Lisesi"
    }, 
    {
      "lat": "41.031552066562135", 
      "lon": "28.862078992266788", 
      "name": "Ba\u011fc\u0131lar \u0130lkokulu"
    }, 
    {
      "lat": "41.02343805546157", 
      "lon": "28.821118978400363", 
      "name": "Ba\u011fc\u0131lar \u0130mam Hatip Lisesi"
    }, 
    {
      "lat": "41.05395853908434", 
      "lon": "28.84080371036066", 
      "name": "Ba\u011fc\u0131lar K\u0131z Teknik Ve Meslek Lisesi"
    }, 
    {
      "lat": "41.03203563814557", 
      "lon": "28.832148221869602", 
      "name": "Ba\u011fc\u0131lar Lokman Hekim \u00d6zel E\u011fitim Uygulama Merkezi I. Kademe"
    }, 
    {
      "lat": "41.0578823257137", 
      "lon": "28.85103901996149", 
      "name": "Ba\u011fc\u0131lar Otocenter Ticaret Meslek Lisesi"
    }, 
    {
      "lat": "41.045972708247206", 
      "lon": "28.8497622884704", 
      "name": "Ba\u011fc\u0131lar Rehberlik Ve Ara\u015ft\u0131rma Merkezi"
    }, 
    {
      "lat": "41.02495571459862", 
      "lon": "28.83906563891901", 
      "name": "Ba\u011fc\u0131lar Teknik Ve End\u00fcstri Meslek Lisesi"
    }, 
    {
      "lat": "41.02997385844088", 
      "lon": "28.832534459967746", 
      "name": "Ba\u011fc\u0131lar Ticaret Meslek Lisesi"
    }, 
    {
      "lat": "41.04262273989763", 
      "lon": "28.855089155573978", 
      "name": "Ba\u011fc\u0131lar Yunus Emre Ticaret Meslek Lisesi"
    }, 
    {
      "lat": "41.02655023078704", 
      "lon": "28.841715661425724", 
      "name": "Barbaros Anadolu Lisesi"
    }, 
    {
      "lat": "41.032312830296874", 
      "lon": "28.851736394305362", 
      "name": "Cumhuriyet \u0130lkokulu"
    }, 
    {
      "lat": "41.03228045755114", 
      "lon": "28.851865140338077", 
      "name": "Cumhuriyet Ortaokulu"
    }, 
    {
      "lat": "41.036165073390755", 
      "lon": "28.868602124591007", 
      "name": "Dede Korkut \u0130lkokulu"
    }, 
    {
      "lat": "41.04322963087", 
      "lon": "28.846393433947696", 
      "name": "Dr Cemil"
    }, 
    {
      "lat": "41.034530325492945", 
      "lon": "28.86449298038019", 
      "name": "Dr. Kemal Naci Ek\u015fi Anadolu Lisesi"
    }, 
    {
      "lat": "41.03927260101974", 
      "lon": "28.82259687556757", 
      "name": "D\u00fcndar U\u00e7ar Teknik Ve End\u00fcstri Meslek Lisesi"
    }, 
    {
      "lat": "41.0519277864694", 
      "lon": "28.84383997096552", 
      "name": "Fatih \u0130lkokulu"
    }, 
    {
      "lat": "41.05171742604185", 
      "lon": "28.844011632342472", 
      "name": "Fatih Ortaokulu"
    }, 
    {
      "lat": "41.05937896616452", 
      "lon": "28.83433422221674", 
      "name": "F\u00fcruzan Sad\u0131ko\u011flu \u0130lkokulu"
    }, 
    {
      "lat": "41.05938705602039", 
      "lon": "28.834269849200382", 
      "name": "F\u00fcruzan Sad\u0131ko\u011flu Ortaokulu"
    }, 
    {
      "lat": "41.02680923484765", 
      "lon": "28.84228428973688", 
      "name": "Gasp\u0131ral\u0131 \u0130smail \u0130lkokulu"
    }, 
    {
      "lat": "41.02320736821055", 
      "lon": "28.832435218234195", 
      "name": "Gazi K\u0131z Teknik Ve Meslek Lisesi"
    }, 
    {
      "lat": "41.031463040444265", 
      "lon": "28.82462462558283", 
      "name": "G\u00fcne\u015fli \u0130lkokulu"
    }, 
    {
      "lat": "41.031495413591955", 
      "lon": "28.824635354418888", 
      "name": "G\u00fcne\u015fli Ortaokulu"
    }, 
    {
      "lat": "41.03858474947391", 
      "lon": "28.854171840090885", 
      "name": "Halk E\u011fitim Merkezi"
    }, 
    {
      "lat": "41.05115915856932", 
      "lon": "28.839205113787784", 
      "name": "Hasan Ka\u011fn\u0131c\u0131 \u0130lkokulu"
    }, 
    {
      "lat": "41.050600886359696", 
      "lon": "28.83381923808588", 
      "name": "Hayreddin Karaman K\u0131z \u0130mam Hatip Lisesi"
    }, 
    {
      "lat": "41.02521877195918", 
      "lon": "28.841613737483158", 
      "name": "H\u0131z\u0131r Reis \u0130mam Hatip Ortaokulu"
    }, 
    {
      "lat": "41.03130522112105", 
      "lon": "28.825767246623172", 
      "name": "Hikmet Nazif Kur\u015funo\u011flu K\u0131z Teknik Ve Meslek Lisesi"
    }, 
    {
      "lat": "41.019524357056085", 
      "lon": "28.857465592761173", 
      "name": "Hoca Ahmet Yesevi Ortaokulu"
    }, 
    {
      "lat": "41.03904601542206", 
      "lon": "28.81662091388239", 
      "name": "\u0130\u00e7da\u015f \u0130lkokulu"
    }, 
    {
      "lat": "41.02648547961267", 
      "lon": "28.849676457781925", 
      "name": "\u0130n\u00f6n\u00fc \u0130lkokulu"
    }, 
    {
      "lat": "41.02667973294467", 
      "lon": "28.850491849322452", 
      "name": "\u0130n\u00f6n\u00fc Ortaokulu"
    }, 
    {
      "lat": "41.060770406737326", 
      "lon": "28.851618377108707", 
      "name": "\u0130stanbul Ticaret Odas\u0131 \u0130lkokulu"
    }, 
    {
      "lat": "41.04403071838425", 
      "lon": "28.838368264575138", 
      "name": "\u0130stiklal \u0130lkokulu"
    }, 
    {
      "lat": "41.04409545230299", 
      "lon": "28.838743773837222", 
      "name": "\u0130stiklal Ortaokulu"
    }, 
    {
      "lat": "41.06205665410657", 
      "lon": "28.836437074084415", 
      "name": "\u0130sto\u00e7 \u0130lkokulu"
    }, 
    {
      "lat": "41.06234787643343", 
      "lon": "28.8363083280517", 
      "name": "\u0130sto\u00e7 Ortaokulu"
    }, 
    {
      "lat": "41.045907976175144", 
      "lon": "28.84951552524103", 
      "name": "\u0130.t.o. \u00d6zel E\u011fitim Uygulama Merkezi I. Kademe"
    }, 
    {
      "lat": "41.03965698551737", 
      "lon": "28.83107265605463", 
      "name": "Kadir Ku\u015f \u0130mam Hatip Ortaokulu"
    }, 
    {
      "lat": "41.05257504510453", 
      "lon": "28.833947984118595", 
      "name": "Karacao\u011flan \u0130lkokulu"
    }, 
    {
      "lat": "41.023757778561", 
      "lon": "28.84052476062311", 
      "name": "Kaz\u0131m Karabekir Ortaokulu"
    }, 
    {
      "lat": "41.036027497161875", 
      "lon": "28.834398595233097", 
      "name": "Kirazl\u0131 \u0130lkokulu"
    }, 
    {
      "lat": "41.041198547106134", 
      "lon": "28.83057912959589", 
      "name": "Koca Yusuf \u0130lkokulu"
    }, 
    {
      "lat": "41.049249686187416", 
      "lon": "28.853227702517643", 
      "name": "Kocarag\u0131ppa\u015fa \u0130lkokulu"
    }, 
    {
      "lat": "41.04053499221303", 
      "lon": "28.827746716876163", 
      "name": "Kurtdereli Mehmet \u0130lkokulu"
    }, 
    {
      "lat": "41.05474331513411", 
      "lon": "28.82482847346796", 
      "name": "Mahmutbey \u0130lkokulu"
    }, 
    {
      "lat": "41.0615915046597", 
      "lon": "28.836930600543155", 
      "name": "Mahmutbey Lisesi"
    }, 
    {
      "lat": "41.05244559388695", 
      "lon": "28.838969079394473", 
      "name": "Malazgirt Ortaokulu"
    }, 
    {
      "lat": "41.058950202380814", 
      "lon": "28.850642053027286", 
      "name": "Massit Mesleki E\u011fitim Merkezi"
    }, 
    {
      "lat": "41.04621545295051", 
      "lon": "28.822629062075748", 
      "name": "Mehmet Akif Ersoy \u0130lkokulu"
    }, 
    {
      "lat": "41.03525868353107", 
      "lon": "28.828197327990665", 
      "name": "Mehmet Niyazi Altu\u011f Anadolu Lisesi"
    }, 
    {
      "lat": "41.02780477222195", 
      "lon": "28.843721953768863", 
      "name": "Mevlana Anaokulu"
    }, 
    {
      "lat": "41.04836775015053", 
      "lon": "28.83652290477289", 
      "name": "Milli E\u011fitim Vakf\u0131 60 Y\u0131l Ucanevler Ortaokulu"
    }, 
    {
      "lat": "41.04747771097301", 
      "lon": "28.844923583407535", 
      "name": "Mimar Sinan Anaokulu"
    }, 
    {
      "lat": "41.045163552768955", 
      "lon": "28.851232139010562", 
      "name": "M\u00fcnir Nurettin Sel\u00e7uk Ortaokulu"
    }, 
    {
      "lat": "41.052672133350605", 
      "lon": "28.835750428576602", 
      "name": "Necip Faz\u0131l K\u0131sak\u00fcrek Ortaokulu"
    }, 
    {
      "lat": "41.04648247108994", 
      "lon": "28.852862922091617", 
      "name": "Nene Hatun \u0130lkokulu"
    }, 
    {
      "lat": "41.02353113956206", 
      "lon": "28.83331498279108", 
      "name": "Nevin"
    }, 
    {
      "lat": "41.023514951032304", 
      "lon": "28.83330425395502", 
      "name": "Nevin"
    }, 
    {
      "lat": "41.04276839424138", 
      "lon": "28.85531982554926", 
      "name": "Orhangazi Anadolu \u0130mam Hatip Lisesi"
    }, 
    {
      "lat": "41.04515546116394", 
      "lon": "28.85083517207636", 
      "name": "Osmangazi Teknik Ve End\u00fcstri Meslek Lisesi"
    }, 
    {
      "lat": "41.04603946312994", 
      "lon": "28.822283057112827", 
      "name": "Peyami Safa Ortaokulu"
    }, 
    {
      "lat": "41.052364686746586", 
      "lon": "28.835965005297794", 
      "name": "Rag\u0131p Ak\u0131n \u0130lkokulu"
    }, 
    {
      "lat": "41.03495924842428", 
      "lon": "28.856489268679752", 
      "name": "Sancaktepe E\u011fitim Uygulama Okulu Ve  \u0130\u015f E\u011fitim Merkezi"
    }, 
    {
      "lat": "41.038366253949114", 
      "lon": "28.855169621844425", 
      "name": "Sancaktepe \u0130lkokulu"
    }, 
    {
      "lat": "41.03501589841375", 
      "lon": "28.85656437053217", 
      "name": "Sancaktepe \u00d6zel E\u011fitim \u0130\u015f Uygulama Merkezi (Okulu)"
    }, 
    {
      "lat": "41.03499971270743", 
      "lon": "28.85632833613886", 
      "name": "Sancaktepe \u00d6zel E\u011fitim Uygulama Merkezi I. Kademe"
    }, 
    {
      "lat": "41.0350644555088", 
      "lon": "28.85638466252817", 
      "name": "Sancaktepe \u00d6zel E\u011fitim Uygulama Merkezi I\u0131. Kademe"
    }, 
    {
      "lat": "41.0513452482532", 
      "lon": "28.83907636775507", 
      "name": "Sebahattin Zaim \u0130mam Hatip Ortaokulu"
    }, 
    {
      "lat": "41.04797330245504", 
      "lon": "28.843338397879734", 
      "name": "Selahattin Eyyubi \u0130mam Hatip Lisesi"
    }, 
    {
      "lat": "41.039369708894256", 
      "lon": "28.859487978358402", 
      "name": "\u015e\u00fckr\u00fc Sava\u015feri \u0130lkokulu"
    }, 
    {
      "lat": "41.04718642280923", 
      "lon": "28.858881799121036", 
      "name": "Tiryaki Hasanpa\u015fa \u0130lkokulu"
    }, 
    {
      "lat": "41.0715773381416", 
      "lon": "28.858420459170475", 
      "name": "T\u00fcrk"
    }, 
    {
      "lat": "41.03586766559375", 
      "lon": "28.822374252219333", 
      "name": "\u00dcsk\u00fcp \u0130lkokulu"
    }, 
    {
      "lat": "41.038091110404764", 
      "lon": "28.841629830737247", 
      "name": "Vak\u0131flar Ortaokulu"
    }, 
    {
      "lat": "41.02752149076133", 
      "lon": "28.839934674639835", 
      "name": "Vali Cahit Bayar \u0130lkokulu"
    }, 
    {
      "lat": "41.03719486279646", 
      "lon": "28.8508968628837", 
      "name": "Yavuz Selim \u0130lkokulu"
    }, 
    {
      "lat": "41.037209024817486", 
      "lon": "28.850921002764835", 
      "name": "Yavuz Selim Ortaokulu"
    }, 
    {
      "lat": "41.04834347651447", 
      "lon": "28.838733045001163", 
      "name": "Yavuz Sultan Selim Lisesi"
    }, 
    {
      "lat": "41.039410170466304", 
      "lon": "28.856896964450015", 
      "name": "Ye\u015filba\u011f Adnan \u00d6t\u00fcgen Ortaokulu"
    }, 
    {
      "lat": "41.04251147594558", 
      "lon": "28.860212174792423", 
      "name": "Zeynep Bedia K\u0131l\u0131\u00e7l\u0131o\u011flu \u0130lkokulu"
    }, 
    {
      "lat": "41.0424163956921", 
      "lon": "28.860625234980716", 
      "name": "Zeynep Bedia K\u0131l\u0131\u00e7l\u0131o\u011flu Ortaokulu"
    }, 
    {
      "lat": "41.0584000862629", 
      "lon": "28.85125359668268", 
      "name": "Ziya G\u00f6kalp Ortaokulu"
    }, 
    {
      "lat": "39.91765128641145", 
      "lon": "36.193307248492374", 
      "name": "Z\u00fcbeyde Han\u0131m Anaokulu"
    }, 
    {
      "lat": "41.003413822199114", 
      "lon": "28.861445990939274", 
      "name": "Adnan Menderes Anadolu Lisesi"
    }, 
    {
      "lat": "41.00403929208388", 
      "lon": "28.827457038302555", 
      "name": "Ak\u0131n Anaokulu"
    }, 
    {
      "lat": "41.01191484659371", 
      "lon": "28.85481557025446", 
      "name": "Ali Haydar G\u00fcnver \u0130lkokulu"
    }, 
    {
      "lat": "41.007138215495274", 
      "lon": "28.8188203252746", 
      "name": "Alt\u0131ny\u0131ld\u0131z \u0130lkokulu"
    }, 
    {
      "lat": "41.006020919607955", 
      "lon": "28.81933530940546", 
      "name": "Alt\u0131ny\u0131ld\u0131z Ortaokulu"
    }, 
    {
      "lat": "41.008891036448965", 
      "lon": "28.824436870951785", 
      "name": "Ata \u0130lkokulu"
    }, 
    {
      "lat": "41.008781739507775", 
      "lon": "28.824420777697696", 
      "name": "Ata Ortaokulu"
    }, 
    {
      "lat": "41.00421539418428", 
      "lon": "28.848185149569644", 
      "name": "Atat\u00fcrk \u0130lkokulu"
    }, 
    {
      "lat": "41.004231587457234", 
      "lon": "28.848646489520206", 
      "name": "Atat\u00fcrk Ortaokulu"
    }, 
    {
      "lat": "41.01936650911846", 
      "lon": "28.836624828715458", 
      "name": "Ayazma K Iz Anadolu \u0130mam Hatip Lisesi"
    }, 
    {
      "lat": "41.00168919487465", 
      "lon": "28.88074716701044", 
      "name": "Ayd\u0131n Do\u011fan Ticaret Meslek Lisesi"
    }, 
    {
      "lat": "41.00934036641359", 
      "lon": "28.850427476306095", 
      "name": "Ba\u011flar \u0130lkokulu"
    }, 
    {
      "lat": "41.00927559831941", 
      "lon": "28.850250450511112", 
      "name": "Ba\u011flar Ortaokulu"
    }, 
    {
      "lat": "41.0051141148162", 
      "lon": "28.865640965838565", 
      "name": "Bah\u00e7elievler Abidin Pak \u00d6\u011fretmen Evi Ve Ak\u015fam Sanat Okulu"
    }, 
    {
      "lat": "41.00336524176551", 
      "lon": "28.876176682849063", 
      "name": "Bah\u00e7elievler Anadolu Lisesi"
    }, 
    {
      "lat": "40.99480440541814", 
      "lon": "28.855478075881137", 
      "name": "Bah\u00e7elievler Anadolu Sa\u011fl\u0131k Meslek Lisesi"
    }, 
    {
      "lat": "41.001490819354124", 
      "lon": "28.851135579486026", 
      "name": "Bah\u00e7elievler Belediyesi Anaokulu"
    }, 
    {
      "lat": "41.001211473220884", 
      "lon": "28.851414529223575", 
      "name": "Bah\u00e7elievler Belediyesi \u0130mam Hatip Ortaokulu"
    }, 
    {
      "lat": "40.998911883251296", 
      "lon": "28.860984650988712", 
      "name": "Bah\u00e7elievler Cumhuriyet Anadolu Lisesi"
    }, 
    {
      "lat": "40.99910621790158", 
      "lon": "28.827703801531925", 
      "name": "Bah\u00e7elievler \u00c7oban\u00e7e\u015fme Anadolu \u0130mam Hatip Lisesi"
    }, 
    {
      "lat": "40.99727621057253", 
      "lon": "28.846886960406437", 
      "name": "Bah\u00e7elievler \u0130mam Hatip Lisesi"
    }, 
    {
      "lat": "40.99704138294524", 
      "lon": "28.86599501742853", 
      "name": "Bah\u00e7elievler Kumport Ortaokulu"
    }, 
    {
      "lat": "41.01844774566495", 
      "lon": "28.842616883654728", 
      "name": "Bah\u00e7elievler Rehberlik Ve Ara\u015ft\u0131rma Merkezi"
    }, 
    {
      "lat": "41.01313728466194", 
      "lon": "28.854182568926944", 
      "name": "Bah\u00e7elievler Ticaret Meslek Lisesi"
    }, 
    {
      "lat": "41.014068265326344", 
      "lon": "28.816696015734806", 
      "name": "Bah\u00e7elievler T\u00fcrk Telekom Teknik Ve End\u00fcstri Meslek Lisesi"
    }, 
    {
      "lat": "41.00687103776729", 
      "lon": "28.819646445651188", 
      "name": "Bah\u00e7elievler T\u00fcrkiye Gazetesi Ticaret  Meslek Lisesi"
    }, 
    {
      "lat": "41.008146194442816", 
      "lon": "28.829930035014285", 
      "name": "Behiye Dr Nevhiz I\u015f\u0131l \u0130lkokulu"
    }, 
    {
      "lat": "41.00814214636541", 
      "lon": "28.829742280383243", 
      "name": "Behiye Dr Nevhiz I\u015f\u0131l Ortaokulu"
    }, 
    {
      "lat": "39.91765128641145", 
      "lon": "32.853463498492374", 
      "name": "B\u00fclent Ecevit \u0130lkokulu"
    }, 
    {
      "lat": "41.00593995540167", 
      "lon": "28.845899907488956", 
      "name": "B\u00fclent Ecevit Ortaokulu"
    }, 
    {
      "lat": "41.01923294518343", 
      "lon": "28.84929021968378", 
      "name": "Dede Korkut Anadolu Lisesi"
    }, 
    {
      "lat": "41.00250698153272", 
      "lon": "28.875924555201663", 
      "name": "Dr. Refik Saydam Ortaokulu"
    }, 
    {
      "lat": "41.01092716483331", 
      "lon": "28.83085807933344", 
      "name": "Emir Sultan Ortaokulu"
    }, 
    {
      "lat": "41.009324174395985", 
      "lon": "28.87624105586542", 
      "name": "Emlak Konut \u0130lkokulu"
    }, 
    {
      "lat": "41.00328427429648", 
      "lon": "28.835686055560245", 
      "name": "Erguvan \u0130lkokulu"
    }, 
    {
      "lat": "41.00339762872522", 
      "lon": "28.835246173281803", 
      "name": "Erguvan Ortaokulu"
    }, 
    {
      "lat": "41.00553513287846", 
      "lon": "28.863709775347843", 
      "name": "Fikret Y\u00fczatl\u0131 \u0130lkokulu"
    }, 
    {
      "lat": "41.00547036104394", 
      "lon": "28.8637741483642", 
      "name": "Fikret Y\u00fczatl\u0131 Ortaokulu"
    }, 
    {
      "lat": "41.01117003877014", 
      "lon": "28.848603574175968", 
      "name": "F\u00fcsun Y\u00f6nder Anadolu Lisesi"
    }, 
    {
      "lat": "41.01571971170133", 
      "lon": "28.831673470873966", 
      "name": "Gazi \u0130lkokulu"
    }, 
    {
      "lat": "41.01021068150337", 
      "lon": "28.843727318186893", 
      "name": "Gsd E\u011fitim Vakf\u0131 Bah\u00e7elievler \u0130lkokulu"
    }, 
    {
      "lat": "41.01020056162654", 
      "lon": "28.843730000395908", 
      "name": "Gsd E\u011fitim Vakf\u0131 Bah\u00e7elievler Ortaokulu"
    }, 
    {
      "lat": "41.01082191918265", 
      "lon": "28.83284291400446", 
      "name": "Halit Ziya U\u015fakl\u0131gil \u0130lkokulu"
    }, 
    {
      "lat": "41.005227466097565", 
      "lon": "28.842938748736514", 
      "name": "Halk E\u011fitim Merkezi"
    }, 
    {
      "lat": "41.01575209258894", 
      "lon": "28.85830244197382", 
      "name": "Haz\u0131m Ersu \u0130lkokulu"
    }, 
    {
      "lat": "41.00393201126325", 
      "lon": "28.841179219622745", 
      "name": "H\u00fcrriyet \u0130lkokulu"
    }, 
    {
      "lat": "41.00380246437921", 
      "lon": "28.841222134966984", 
      "name": "H\u00fcrriyet Ortaokulu"
    }, 
    {
      "lat": "40.99874993727166", 
      "lon": "28.828969804186954", 
      "name": "\u0130hkib Yenibosna K\u0131z Teknik Ve Meslek Lisesi"
    }, 
    {
      "lat": "40.99619923560936", 
      "lon": "28.861880508799686", 
      "name": "\u0130mmib Erkan Avc\u0131 Teknik Ve End\u00fcstri Meslek Lisesi"
    }, 
    {
      "lat": "41.01789729093709", 
      "lon": "28.841908780474796", 
      "name": "Kaz\u0131m Beyaz \u00d6zel E\u011fitim Mesleki E\u011fitim Merkezi (Okulu)"
    }, 
    {
      "lat": "41.009283694334634", 
      "lon": "28.861703483004703", 
      "name": "Kaz\u0131m Karabekir \u0130lkokulu"
    }, 
    {
      "lat": "41.00937275043682", 
      "lon": "28.861724940676822", 
      "name": "Kaz\u0131m Karabekir Ortaokulu"
    }, 
    {
      "lat": "41.00423563577484", 
      "lon": "28.882099000353946", 
      "name": "Kemal Haso\u011flu \u0130mam Hatip Ortaokulu"
    }, 
    {
      "lat": "41.0051141148162", 
      "lon": "28.881562558550968", 
      "name": "Kemal Haso\u011flu Lisesi"
    }, 
    {
      "lat": "41.017565396892905", 
      "lon": "28.84204825534357", 
      "name": "Kocasinan \u0130lkokulu"
    }, 
    {
      "lat": "41.00168514640064", 
      "lon": "28.851393071551456", 
      "name": "Kocasinan K\u0131z Teknik Ve Meslek Lisesi"
    }, 
    {
      "lat": "41.01971863092159", 
      "lon": "28.83658727778925", 
      "name": "Kocasinan \u015eehit Samet K\u0131rba\u015f Teknik Ve End\u00fcstri Meslek Lisesi"
    }, 
    {
      "lat": "41.00624761885606", 
      "lon": "28.874696103472843", 
      "name": "Koza \u0130lkokulu"
    }, 
    {
      "lat": "40.99811834414946", 
      "lon": "28.827746716876163", 
      "name": "Kudret Saraco\u011flu \u0130lkokulu"
    }, 
    {
      "lat": "40.99823170746322", 
      "lon": "28.827660886187686", 
      "name": "Kudret Saraco\u011flu Ortaokulu"
    }, 
    {
      "lat": "40.99695231017815", 
      "lon": "28.834377137560977", 
      "name": "Kuleli \u0130lkokulu"
    }, 
    {
      "lat": "40.9967336765122", 
      "lon": "28.83454879893793", 
      "name": "Kuleli Ortaokulu"
    }, 
    {
      "lat": "41.017342784096996", 
      "lon": "28.844177929301395", 
      "name": "Mehmet Akif Ersoy Ortaokulu"
    }, 
    {
      "lat": "41.01725373876799", 
      "lon": "28.84306749476923", 
      "name": "Mehmet Akif Ticaret Meslek Lisesi"
    }, 
    {
      "lat": "41.001251958241106", 
      "lon": "28.872131911654605", 
      "name": "Mevlana \u0130lkokulu"
    }, 
    {
      "lat": "41.0203338277154", 
      "lon": "28.836321739096774", 
      "name": "Mimar Sinan \u0130mam Hatip Ortaokulu"
    }, 
    {
      "lat": "41.017371116676415", 
      "lon": "28.850180713076724", 
      "name": "Mustafa Kemal \u0130lkokulu"
    }, 
    {
      "lat": "41.01736302165497", 
      "lon": "28.850352374453678", 
      "name": "Mustafa Kemal Ortaokulu"
    }, 
    {
      "lat": "41.01508828121112", 
      "lon": "28.81906708850397", 
      "name": "Mustafa Nevzat P\u0131sak Mesleki E\u011fitim Merk."
    }, 
    {
      "lat": "41.000976659613315", 
      "lon": "28.836125937838688", 
      "name": "Necip Faz\u0131l K\u0131sak\u00fcrek Lisesi"
    }, 
    {
      "lat": "41.00142604354455", 
      "lon": "28.850883451838627", 
      "name": "Orgeneral E\u015fref Bitlis Ortaokulu"
    }, 
    {
      "lat": "40.99504835099905", 
      "lon": "28.831652013201847", 
      "name": "Prof. Dr. M\u00fcmtaz Turhan Sosyal Bilimler Lisesi"
    }, 
    {
      "lat": "40.9996082464295", 
      "lon": "28.852744904894962", 
      "name": "Siyavu\u015fpa\u015fa \u0130lkokulu"
    }, 
    {
      "lat": "41.011882463819965", 
      "lon": "28.84205898417963", 
      "name": "Siyavu\u015fpa\u015fa K\u0131z Teknik Ve Meslek Lisesi"
    }, 
    {
      "lat": "40.9972762105725", 
      "lon": "28.8458355344726", 
      "name": "\u015eair Zihni \u0130lkokulu"
    }, 
    {
      "lat": "40.997567719566675", 
      "lon": "28.84553512706293", 
      "name": "\u015eair Zihni Ortaokulu"
    }, 
    {
      "lat": "41.00637716093349", 
      "lon": "28.846447078127994", 
      "name": "\u015eehit Cengiz Sar\u0131ba\u015f Anadolu Sa\u011fl\u0131k Meslek Lisesi"
    }, 
    {
      "lat": "40.995365175239876", 
      "lon": "28.84630760325922", 
      "name": "\u015eirinevler Mehmet \u015een \u0130lkokulu"
    }, 
    {
      "lat": "40.995041265455406", 
      "lon": "28.846157399554386", 
      "name": "\u015eirinevler Mehmet \u015een Ortaokulu"
    }, 
    {
      "lat": "41.015120662409174", 
      "lon": "28.852476683993472", 
      "name": "\u015eirintepe Ortaokulu"
    }, 
    {
      "lat": "41.01380921115821", 
      "lon": "28.83983275069727", 
      "name": "Toki Halit \u00d6ge \u0130lkokulu"
    }, 
    {
      "lat": "41.013801115699074", 
      "lon": "28.83984884395136", 
      "name": "Toki Halit \u00d6ge Ortaokulu"
    }, 
    {
      "lat": "41.01197961209358", 
      "lon": "28.836501447100773", 
      "name": "Vali Recep Yaz\u0131c\u0131o\u011flu Ortaokulu"
    }, 
    {
      "lat": "40.99874993727169", 
      "lon": "28.863581029315128", 
      "name": "Yayla \u0130lkokulu"
    }, 
    {
      "lat": "41.01461875205133", 
      "lon": "28.82384142055048", 
      "name": "Yenibosna Do\u011fu Sanayi \u0130lkokulu"
    }, 
    {
      "lat": "41.01450541692512", 
      "lon": "28.823755589862003", 
      "name": "Yenibosna Do\u011fu Sanayi Ortaokulu"
    }, 
    {
      "lat": "41.00113050310585", 
      "lon": "28.83481701983942", 
      "name": "Yenibosna \u0130lkokulu"
    }, 
    {
      "lat": "41.00113050310585", 
      "lon": "28.83478483333124", 
      "name": "Yenibosna Ortaokulu"
    }, 
    {
      "lat": "41.011817698224704", 
      "lon": "28.848753777880802", 
      "name": "Yunus Emre \u0130mam Hatip Ortaokulu"
    }, 
    {
      "lat": "40.99677416428281", 
      "lon": "28.840127793688907", 
      "name": "Zaferler \u0130lkokulu"
    }, 
    {
      "lat": "40.99662031062212", 
      "lon": "28.839956132311954", 
      "name": "Zaferler Ortaokulu"
    }, 
    {
      "lat": "41.017371116676436", 
      "lon": "28.838368264575138", 
      "name": "75.y\u0131l Cumhuriyet \u0130lkokulu"
    }, 
    {
      "lat": "41.01741968678426", 
      "lon": "28.83834680690302", 
      "name": "75.y\u0131l Cumhuriyet Ortaokulu"
    }, 
    {
      "lat": "40.98321746913967", 
      "lon": "28.861435262103214", 
      "name": "Atak\u00f6y Anadolu Lisesi"
    }, 
    {
      "lat": "40.989421177347445", 
      "lon": "28.847359029193057", 
      "name": "Atak\u00f6y Atat\u00fcrk Ortaokulu"
    }, 
    {
      "lat": "40.98580511811916", 
      "lon": "28.84831389560236", 
      "name": "Atak\u00f6y Cumhuriyet Anadolu Lisesi"
    }, 
    {
      "lat": "40.97815526441493", 
      "lon": "28.863473740954532", 
      "name": "Atak\u00f6y \u0130lkokulu"
    }, 
    {
      "lat": "40.984505232027544", 
      "lon": "28.78064712657465", 
      "name": "Aybars Ak Ortaokulu"
    }, 
    {
      "lat": "40.984009162823476", 
      "lon": "28.874796015758648", 
      "name": "Bak\u0131rk\u00f6y Anadolu \u0130mam Hatip Lisesi"
    }, 
    {
      "lat": "40.97890854508321", 
      "lon": "28.8806318320228", 
      "name": "Bak\u0131rk\u00f6y Anadolu Lisesi"
    }, 
    {
      "lat": "40.98077146032806", 
      "lon": "28.877346125979556", 
      "name": "Bak\u0131rk\u00f6y Behrama\u011fa \u0130lkokulu"
    }, 
    {
      "lat": "40.981840587922164", 
      "lon": "28.875200358767642", 
      "name": "Bak\u0131rk\u00f6y Halk E\u011fitimi Merkezi"
    }, 
    {
      "lat": "40.984821094556004", 
      "lon": "28.874106017489567", 
      "name": "Bak\u0131rk\u00f6y \u0130lkokulu"
    }, 
    {
      "lat": "40.98170289821939", 
      "lon": "28.874470797915592", 
      "name": "Bak\u0131rk\u00f6y K\u0131z Teknik Ve Meslek Lisesi"
    }, 
    {
      "lat": "40.96115151265592", 
      "lon": "28.831458894152774", 
      "name": "Bak\u0131rk\u00f6y N\u00fcket Ercan Ticaret Meslek Lisesi"
    }, 
    {
      "lat": "40.98231035062694", 
      "lon": "28.874867764849796", 
      "name": "Bak\u0131rk\u00f6y Rehberlik Ve Ara\u015ft\u0131rma Merkezi"
    }, 
    {
      "lat": "40.98472390624681", 
      "lon": "28.875168172259464", 
      "name": "Bak\u0131rk\u00f6y Ticaret Meslek Lisesi"
    }, 
    {
      "lat": "40.994312462621366", 
      "lon": "28.87800058497919", 
      "name": "Bak\u0131rk\u00f6y 70. Y\u0131l  Anadolu Sa\u011fl\u0131k Meslek Lisesi"
    }, 
    {
      "lat": "40.98470163390578", 
      "lon": "28.874296454329624", 
      "name": "Cumhuriyet Ortaokulu"
    }, 
    {
      "lat": "40.97916773644215", 
      "lon": "28.794004527468814", 
      "name": "Florya Tevfik Ercan Anadolu Lisesi"
    }, 
    {
      "lat": "40.98336325487976", 
      "lon": "28.85080834998621", 
      "name": "Gazi Ortaokulu"
    }, 
    {
      "lat": "40.996547432447024", 
      "lon": "28.88424476756586", 
      "name": "G\u00fcrlek"
    }, 
    {
      "lat": "40.989178223255166", 
      "lon": "28.8678081907226", 
      "name": "Halil Bedii Y\u00f6netgen Ortaokulu"
    }, 
    {
      "lat": "40.989492038789024", 
      "lon": "28.86863162889017", 
      "name": "Halil Vedat F\u0131ratl\u0131 \u0130lkokulu"
    }, 
    {
      "lat": "40.985290836030956", 
      "lon": "28.866670934100284", 
      "name": "Hamdi Akverdi \u0130lkokulu"
    }, 
    {
      "lat": "40.96094896419493", 
      "lon": "28.836243955035343", 
      "name": "Hamdullah Suphi Tanr\u0131\u00f6ver \u0130lkokulu"
    }, 
    {
      "lat": "40.989506211068225", 
      "lon": "28.84140720738901", 
      "name": "Hasan Polatkan Anadolu Lisesi"
    }, 
    {
      "lat": "40.995041265455434", 
      "lon": "28.88525327815546", 
      "name": "\u0130bni Sina Ortaokulu"
    }, 
    {
      "lat": "40.99147815278582", 
      "lon": "28.874460069079532", 
      "name": "\u0130ncirlik Ahmet Hamdi Tanp\u0131nar Ortaokulu"
    }, 
    {
      "lat": "40.98175149461793", 
      "lon": "28.875125256915226", 
      "name": "Kartaltepe \u0130lkokulu"
    }, 
    {
      "lat": "40.98725075573431", 
      "lon": "28.843475190539493", 
      "name": "Medeni Berk \u0130lkokulu"
    }, 
    {
      "lat": "40.983930196361044", 
      "lon": "28.845728246112003", 
      "name": "Mimar Sinan \u0130lkokulu"
    }, 
    {
      "lat": "40.983217469139646", 
      "lon": "28.861628381152286", 
      "name": "Muhittin \u00dcst\u00fcnda\u011f \u0130lkokulu"
    }, 
    {
      "lat": "40.98323366757113", 
      "lon": "28.86180004252924", 
      "name": "Muhittin \u00dcst\u00fcnda\u011f Ortaokulu"
    }, 
    {
      "lat": "40.98495067874533", 
      "lon": "28.788007108111514", 
      "name": "Murat K\u00f6l\u00fck \u0130lkokulu"
    }, 
    {
      "lat": "40.98566338723535", 
      "lon": "28.877592889208927", 
      "name": "Mustafa Necati \u0130lkokulu"
    }, 
    {
      "lat": "40.98563099156201", 
      "lon": "28.87772163524164", 
      "name": "Mustafa Necati Ortaokulu"
    }, 
    {
      "lat": "40.99426792440913", 
      "lon": "28.878703323741092", 
      "name": "Nefus Nakipo\u011flu \u00d6zel E\u011fitim Uygulama Merkezi I. Kademe"
    }, 
    {
      "lat": "40.993883274960766", 
      "lon": "28.87705644740595", 
      "name": "Osmaniye \u0130lk\u00f6\u011fretim Okulu"
    }, 
    {
      "lat": "40.97570096772767", 
      "lon": "28.87676676883234", 
      "name": "Pilot Cengiz Topel \u0130lkokulu"
    }, 
    {
      "lat": "39.91765128641145", 
      "lon": "32.853463498492374", 
      "name": "Sabri \u00c7al\u0131\u015fkan K\u0131z Teknik Ve Meslek Lisesi"
    }, 
    {
      "lat": "40.96062083436891", 
      "lon": "28.81982347144617", 
      "name": "\u015eehit Pilot Muzaffer Erd\u00f6nmez \u0130lkokulu"
    }, 
    {
      "lat": "40.96056817140546", 
      "lon": "28.819726911921634", 
      "name": "\u015eehit Pilot Muzaffer Erd\u00f6nmez Ortaokulu"
    }, 
    {
      "lat": "40.97738577528037", 
      "lon": "28.795023766894474", 
      "name": "\u015eenlikk\u00f6y Ortaokulu"
    }, 
    {
      "lat": "40.980415080612104", 
      "lon": "28.877110091586246", 
      "name": "Yahya Kemal Beyatl\u0131 Anadolu Lisesi"
    }, 
    {
      "lat": "40.96248021514685", 
      "lon": "28.834248391528263", 
      "name": "Ye\u015filk\u00f6y Anadolu Lisesi"
    }, 
    {
      "lat": "40.960908454428136", 
      "lon": "28.823422995944156", 
      "name": "Ye\u015filk\u00f6y \u00d6zel E\u011fitim Mesleki E\u011fitim Merkezi (Okulu)"
    }, 
    {
      "lat": "40.960608681381075", 
      "lon": "28.8218458570434", 
      "name": "Ye\u015filk\u00f6y 50. Yil Lisesi"
    }, 
    {
      "lat": "40.96952027158462", 
      "lon": "28.799755183596744", 
      "name": "Zeynep Bedia K\u0131l\u0131\u00e7l\u0131o\u011flu \u0130lkokulu"
    }, 
    {
      "lat": "40.98133842408933", 
      "lon": "28.856843320269718", 
      "name": "60 Y\u0131l Atak\u00f6y \u0130lkokulu"
    }, 
    {
      "lat": "40.98138702075636", 
      "lon": "28.8572724737121", 
      "name": "60 Y\u0131l Atak\u00f6y Ortaokulu"
    }, 
    {
      "lat": "39.91765128641145", 
      "lon": "32.853463498492374", 
      "name": "Abdi \u0130brahim Ortaokulu"
    }, 
    {
      "lat": "41.10861965437979", 
      "lon": "28.808456269641055", 
      "name": "Ahmet Kabakl\u0131 \u0130lkokulu"
    }, 
    {
      "lat": "41.064726143833845", 
      "lon": "28.679431287188663", 
      "name": "Bah\u00e7e\u015fehir Anaokulu"
    }, 
    {
      "lat": "41.07396335980787", 
      "lon": "28.683422414202823", 
      "name": "Bah\u00e7e\u015fehir Atat\u00fcrk Anadolu Lisesi"
    }, 
    {
      "lat": "41.08033644392128", 
      "lon": "28.662136403460636", 
      "name": "Bah\u00e7e\u015fehir Bo\u011fazk\u00f6y \u0130lkokulu"
    }, 
    {
      "lat": "41.080401142114354", 
      "lon": "28.662179318804874", 
      "name": "Bah\u00e7e\u015fehir Bo\u011fazk\u00f6y Ortaokulu"
    }, 
    {
      "lat": "41.08066802148786", 
      "lon": "28.662828413386478", 
      "name": "Bah\u00e7e\u015fehir \u0130mkb Teknik Ve End\u00fcstri Meslek Lisesi"
    }, 
    {
      "lat": "39.91765128641145", 
      "lon": "32.853463498492374", 
      "name": "Bah\u00e7e\u015fehir S\u00fcleyman Demirel \u0130lkokulu"
    }, 
    {
      "lat": "41.07330013535681", 
      "lon": "28.749469128985538", 
      "name": "Ba\u015fak\u015fehir Alt\u0131n\u015fehir Lisesi"
    }, 
    {
      "lat": "41.09458468319266", 
      "lon": "28.810033408541813", 
      "name": "Ba\u015fak\u015fehir Anadolu Lisesi"
    }, 
    {
      "lat": "41.10393088474174", 
      "lon": "28.669131604571475", 
      "name": "Ba\u015fak\u015fehir Cumhuriyet \u0130lkokulu"
    }, 
    {
      "lat": "41.10750408092233", 
      "lon": "28.77985319270624", 
      "name": "Ba\u015fak\u015fehir Halk E\u011fitimi Merkezi"
    }, 
    {
      "lat": "41.079107166151125", 
      "lon": "28.8033493436767", 
      "name": "Ba\u015fak\u015fehir Mesleki E\u011fitim Merkezi"
    }, 
    {
      "lat": "41.10179657527073", 
      "lon": "28.80236229075922", 
      "name": "Ba\u015fak\u015fehir Rehberlik Ve Ara\u015ft\u0131rma Merkezi"
    }, 
    {
      "lat": "41.0737773341126", 
      "lon": "28.749576417346134", 
      "name": "Ba\u015fak\u015fehir Ticaret Meslek Lisesi"
    }, 
    {
      "lat": "41.10077790311599", 
      "lon": "28.791483250994815", 
      "name": "Cahit Zarifo\u011flu \u0130lkokulu"
    }, 
    {
      "lat": "41.14092264034005", 
      "lon": "28.79037818088068", 
      "name": "Fenertepe Ortaokulu"
    }, 
    {
      "lat": "39.91765128641145", 
      "lon": "32.853463498492374", 
      "name": "Hac\u0131 Ali Osman G\u00fcl \u0130lkokulu"
    }, 
    {
      "lat": "41.085924515526315", 
      "lon": "28.7448879159881", 
      "name": "Hikmet Ulu\u011fbay Ortaokulu"
    }, 
    {
      "lat": "41.09221558174861", 
      "lon": "28.738305775065555", 
      "name": "\u0130bb Mehmet Akif Ersoy \u0130lkokulu"
    }, 
    {
      "lat": "41.10644507698848", 
      "lon": "28.790254799265995", 
      "name": "\u0130bb \u015eair Erdem Bayaz\u0131t Ortaokulu"
    }, 
    {
      "lat": "41.089407722055235", 
      "lon": "28.71862640752329", 
      "name": "\u0130brahim Ko\u00e7aslan Ortaokulu"
    }, 
    {
      "lat": "41.073914831416374", 
      "lon": "28.779037801165714", 
      "name": "\u0130mkb Alparslan Ortaokulu"
    }, 
    {
      "lat": "41.11928636835847", 
      "lon": "28.804155347485675", 
      "name": "\u0130stanbul B\u00fcy\u00fck\u015fehir Belediyesi Ak\u015femsettin Ortaokulu"
    }, 
    {
      "lat": "41.101748067431195", 
      "lon": "28.80259832515253", 
      "name": "\u0130stanbul B\u00fcy\u00fck\u015fehir Belediyesi Fatih Sultan Mehmet \u0130lkokulu"
    }, 
    {
      "lat": "41.1107052408717", 
      "lon": "28.739255277056827", 
      "name": "Kayaba\u015f\u0131 \u0130lkokulu"
    }, 
    {
      "lat": "41.085059244647645", 
      "lon": "28.748610822100773", 
      "name": "Mahmut \u015eevket Z\u0131rh \u0130lkokulu"
    }, 
    {
      "lat": "41.075807412139504", 
      "lon": "28.78714880122675", 
      "name": "Mehmet Yaren G\u00fcmeli \u0130lkokulu"
    }, 
    {
      "lat": "41.06902945669258", 
      "lon": "28.78111919536127", 
      "name": "Miktat A\u011fao\u011flu K\u0131z Teknik Ve Meslek Lisesi"
    }, 
    {
      "lat": "41.10849031350099", 
      "lon": "28.7864192403747", 
      "name": "Nurettin Topcu \u0130lkokulu"
    }, 
    {
      "lat": "41.12347599205125", 
      "lon": "28.80485138072504", 
      "name": "Oyakkent \u0130lkokulu"
    }, 
    {
      "lat": "41.12328202454165", 
      "lon": "28.80507668628229", 
      "name": "\u00d6\u011frenciden Arma\u011fan Anadolu Lisesi"
    }, 
    {
      "lat": "41.10193401395495", 
      "lon": "28.797684518237247", 
      "name": "Prof. Dr. Ahat And\u0131can Ortaokulu"
    }, 
    {
      "lat": "41.12384776150881", 
      "lon": "28.75195821895136", 
      "name": "\u015eamlar \u0130lkokulu"
    }, 
    {
      "lat": "41.12386392535047", 
      "lon": "28.752559033770694", 
      "name": "\u015eamlar Ortaokulu"
    }, 
    {
      "lat": "41.07308984328007", 
      "lon": "28.751797286410465", 
      "name": "\u015eh.\u00f6\u011frt.aynur Sar\u0131 Anaokulu"
    }, 
    {
      "lat": "39.91765128641145", 
      "lon": "32.853463498492374", 
      "name": "Tepe Ortaokulu"
    }, 
    {
      "lat": "41.12124533107803", 
      "lon": "28.789981213946476", 
      "name": "Toki Celalettin \u00d6kten Anadolu \u0130mam Hatip Lisesi"
    }, 
    {
      "lat": "41.07851273740383", 
      "lon": "28.781741467852726", 
      "name": "Toki \u0130mam Hatip Ortaokulu"
    }, 
    {
      "lat": "41.10066067395745", 
      "lon": "28.763824311633243", 
      "name": "Toki Kaya\u015fehir Anadolu Lisesi"
    }, 
    {
      "lat": "41.097608599815054", 
      "lon": "28.763041106600894", 
      "name": "Toki Kaya\u015fehir Anaokulu"
    }, 
    {
      "lat": "41.107148386849445", 
      "lon": "28.759983388323917", 
      "name": "Toki Kaya\u015fehir Mevlana \u0130lkokulu"
    }, 
    {
      "lat": "41.09877083019882", 
      "lon": "28.763561455149784", 
      "name": "Toki Kaya\u015fehir Ortaokulu"
    }, 
    {
      "lat": "41.10178040599486", 
      "lon": "28.759082166094913", 
      "name": "Toki Kaya\u015fehir Ticaret Meslek Lisesi"
    }, 
    {
      "lat": "41.10538605597531", 
      "lon": "28.758009282488956", 
      "name": "Toki Mimar Sinan Anaokulu"
    }, 
    {
      "lat": "41.10486462332374", 
      "lon": "28.7676705993606", 
      "name": "Toki Nasrettin Hoca Anaokulu"
    }, 
    {
      "lat": "41.13362615829155", 
      "lon": "28.788715211291446", 
      "name": "Toki Osmangazi \u0130lkokulu"
    }, 
    {
      "lat": "41.03851191771288", 
      "lon": "28.910530415911808", 
      "name": "Ahmet Ha\u015fim \u0130lkokulu"
    }, 
    {
      "lat": "41.03844717830216", 
      "lon": "28.91046604289545", 
      "name": "Ahmet Ha\u015fim Ortaokulu"
    }, 
    {
      "lat": "41.03045137155618", 
      "lon": "28.91549250258936", 
      "name": "Ali \u00dclker \u0130lkokulu"
    }, 
    {
      "lat": "41.070679524516215", 
      "lon": "28.887109366793765", 
      "name": "Ali \u00dclker Mesleki E\u011fitim Merkezi"
    }, 
    {
      "lat": "41.03037043737365", 
      "lon": "28.915626613040104", 
      "name": "Ali \u00dclker Ortaokulu"
    }, 
    {
      "lat": "41.053659189052354", 
      "lon": "28.89649709834589", 
      "name": "Atat\u00fcrk Ortaokulu"
    }, 
    {
      "lat": "41.06193935586056", 
      "lon": "28.89026900901331", 
      "name": "Bayrampa\u015fa \u0130lkokulu"
    }, 
    {
      "lat": "41.04218577493208", 
      "lon": "28.9072152055694", 
      "name": "Bayrampa\u015fa K\u0131z Teknik Ve Meslek Lisesi"
    }, 
    {
      "lat": "41.06197171401834", 
      "lon": "28.890338746447696", 
      "name": "Bayrampa\u015fa Ortaokulu"
    }, 
    {
      "lat": "41.069498597835974", 
      "lon": "28.884432522196903", 
      "name": "Bayrampa\u015fa Rehberlik Ve Ara\u015ft\u0131rma Merkezi"
    }, 
    {
      "lat": "41.04836775015053", 
      "lon": "28.90044531001581", 
      "name": "Bayrampa\u015fa Ticaret Meslek Lisesi"
    }, 
    {
      "lat": "41.07005670966389", 
      "lon": "28.884588090319767", 
      "name": "Cevatpa\u015fa Ortaokulu"
    }, 
    {
      "lat": "41.04743725436072", 
      "lon": "28.90246233119501", 
      "name": "Fetihtepe Ortaokulu"
    }, 
    {
      "lat": "41.06370689690801", 
      "lon": "28.89375051631464", 
      "name": "Hac\u0131 Halide Canayak\u0131n Anaokulu"
    }, 
    {
      "lat": "41.03561476674996", 
      "lon": "28.91619524135126", 
      "name": "Hac\u0131 \u0130lbey \u0130lkokulu"
    }, 
    {
      "lat": "41.06942580029176", 
      "lon": "28.884405700106754", 
      "name": "Halk E\u011fitim Merkezi"
    }, 
    {
      "lat": "41.03555811727584", 
      "lon": "28.907869664569034", 
      "name": "H\u00fcrriyet Ortaokulu"
    }, 
    {
      "lat": "41.04056736089962", 
      "lon": "28.903084603686466", 
      "name": "H\u00fcseyin B\u00fcrge Anadolu Lisesi"
    }, 
    {
      "lat": "41.046692848254835", 
      "lon": "28.91451081408991", 
      "name": "\u0130n\u00f6n\u00fc Teknik Ve End\u00fcstri Meslek Lisesi"
    }, 
    {
      "lat": "41.03571188002091", 
      "lon": "28.917890397448673", 
      "name": "\u0130stanbul Ticaret Odas\u0131 Teknik Ve End\u00fcstri Meslek Lisesi"
    }, 
    {
      "lat": "41.0484486622061", 
      "lon": "28.899587003131046", 
      "name": "Kocatepe \u0130lkokulu"
    }, 
    {
      "lat": "41.037654115352716", 
      "lon": "28.897430507083072", 
      "name": "Mobil \u0130mam Hatip Ortaokulu"
    }, 
    {
      "lat": "41.0510944315994", 
      "lon": "28.905659524340763", 
      "name": "Mustafa Itri \u0130lkokulu"
    }, 
    {
      "lat": "41.05110252247412", 
      "lon": "28.905627337832584", 
      "name": "Mustafa Itri Ortaokulu"
    }, 
    {
      "lat": "41.041906601351926", 
      "lon": "28.907102552790775", 
      "name": "Nail Re\u015fit \u0130lkokulu"
    }, 
    {
      "lat": "41.04191469335642", 
      "lon": "28.907102552790775", 
      "name": "Nail Re\u015fit Ortaokulu"
    }, 
    {
      "lat": "41.06872208654226", 
      "lon": "28.89196952952875", 
      "name": "Nuri \u00d6rs Ortaokulu"
    }, 
    {
      "lat": "41.05655554570372", 
      "lon": "28.904608098406925", 
      "name": "O\u011fuzhan \u0130lkokulu"
    }, 
    {
      "lat": "41.056684988834", 
      "lon": "28.90473684443964", 
      "name": "O\u011fuzhan Ortaokulu"
    }, 
    {
      "lat": "41.05645037297283", 
      "lon": "28.894362059970035", 
      "name": "Osmangazi Ortaokulu"
    }, 
    {
      "lat": "41.05631283914784", 
      "lon": "28.898642865557804", 
      "name": "Prof.muharrem Ergin \u0130lkokulu"
    }, 
    {
      "lat": "41.05631283914789", 
      "lon": "28.898685780902042", 
      "name": "Prof.muharrem Ergin Ortaokulu"
    }, 
    {
      "lat": "41.03633097375499", 
      "lon": "28.916012851138248", 
      "name": "R\u0131fat Canayak\u0131n \u0130mam Hatip Lisesi"
    }, 
    {
      "lat": "41.03631681154507", 
      "lon": "28.91600748672022", 
      "name": "R\u0131fat Canayak\u0131n Lisesi"
    }, 
    {
      "lat": "41.06317299935655", 
      "lon": "28.889909593005313", 
      "name": "Sabit B\u00fcy\u00fckbayrak \u00c7ok Programl\u0131 Lisesi"
    }, 
    {
      "lat": "41.057218939053534", 
      "lon": "28.905616608996183", 
      "name": "Sa\u011fmalc\u0131lar Anadolu Lisesi"
    }, 
    {
      "lat": "41.05995334345696", 
      "lon": "28.89921149386896", 
      "name": "Sancak"
    }, 
    {
      "lat": "41.05931020234972", 
      "lon": "28.899560181040897", 
      "name": "Sancak"
    }, 
    {
      "lat": "41.043707047835355", 
      "lon": "28.90999933852686", 
      "name": "Suat Terimer Anadolu Lisesi"
    }, 
    {
      "lat": "41.038447178302185", 
      "lon": "28.899629918475284", 
      "name": "\u015eair Baki \u0130lkokulu"
    }, 
    {
      "lat": "41.03859284188679", 
      "lon": "28.899587003131046", 
      "name": "\u015eair Baki Ortaokulu"
    }, 
    {
      "lat": "41.06543798946027", 
      "lon": "28.88900837077631", 
      "name": "\u015eair Sinasi \u0130lkokulu"
    }, 
    {
      "lat": "41.07014163930934", 
      "lon": "28.887656537432804", 
      "name": "\u015eakire Sadi Obdan \u0130lkokulu"
    }, 
    {
      "lat": "41.07086555897714", 
      "lon": "28.886685577769412", 
      "name": "\u015eehit B\u00fcy\u00fckel\u00e7i \u0130smail Erez Teknik Ve End\u00fcstri Meslek Lisesi"
    }, 
    {
      "lat": "39.91765128641145", 
      "lon": "32.853463498492374", 
      "name": "\u015eehit Kamil Balkan Ortaokulu"
    }, 
    {
      "lat": "41.033186888416495", 
      "lon": "28.899640647311344", 
      "name": "Terazidere Prof.ibrahim Ve Feti Pirlepeli Teknik Ve End\u00fcstri Meslek Lisesi"
    }, 
    {
      "lat": "41.04359173981775", 
      "lon": "28.911029306788578", 
      "name": "Tuna Anadolu Sa\u011fl\u0131k Meslek Lisesi"
    }, 
    {
      "lat": "41.04421581676389", 
      "lon": "28.910146860022678", 
      "name": "Tuna Anaokulu"
    }, 
    {
      "lat": "41.060940289907116", 
      "lon": "28.893943635363712", 
      "name": "Tuna \u0130lkokulu"
    }, 
    {
      "lat": "41.0330169335798", 
      "lon": "28.900402394671573", 
      "name": "Ulu\u011fbey \u0130lkokulu"
    }, 
    {
      "lat": "41.03295016548826", 
      "lon": "28.900426534552707", 
      "name": "Ulu\u011fbey Ortaokulu"
    }, 
    {
      "lat": "41.034295630630666", 
      "lon": "28.90893181933893", 
      "name": "Vatan \u0130lkokulu"
    }, 
    {
      "lat": "41.039741954419156", 
      "lon": "28.90593847407831", 
      "name": "Yahya Kemal Ortaokulu"
    }, 
    {
      "lat": "41.08577895673638", 
      "lon": "29.027721492190494", 
      "name": "Akatlar Anaokulu"
    }, 
    {
      "lat": "41.07626032936059", 
      "lon": "29.03307518138422", 
      "name": "Ali Yalk\u0131n Ortaokulu"
    }, 
    {
      "lat": "41.064451110505324", 
      "lon": "29.040510264773502", 
      "name": "Arnavutk\u00f6y Korkmaz Yi\u011fit Anadolu Lisesi"
    }, 
    {
      "lat": "41.047571772500504", 
      "lon": "29.01051378025545", 
      "name": "Atat\u00fcrk Anadolu Lisesi"
    }, 
    {
      "lat": "41.064540092002176", 
      "lon": "29.028987494845523", 
      "name": "Bernar Nahum \u0130lkokulu"
    }, 
    {
      "lat": "41.064564359662285", 
      "lon": "29.028998223681583", 
      "name": "Bernar Nahum Ortaokulu"
    }, 
    {
      "lat": "41.04299496702431", 
      "lon": "29.01288351192011", 
      "name": "Be\u015fikta\u015f Anadolu Lisesi"
    }, 
    {
      "lat": "41.0638039687244", 
      "lon": "29.009471742053165", 
      "name": "Be\u015fikta\u015f Bilim Ve Sanat Merkezi"
    }, 
    {
      "lat": "41.07797491628594", 
      "lon": "29.02304371966852", 
      "name": "Be\u015fikta\u015f Etiler Otelcilik Ve Turizm Meslek Lisesi"
    }, 
    {
      "lat": "41.04867521543222", 
      "lon": "29.006253091235294", 
      "name": "Be\u015fikta\u015f \u0130lkokulu"
    }, 
    {
      "lat": "41.04658462547037", 
      "lon": "29.022155908484592", 
      "name": "Be\u015fikta\u015f Kabata\u015f Erkek Lisesi"
    }, 
    {
      "lat": "41.07554860089776", 
      "lon": "29.03253873958124", 
      "name": "Be\u015fikta\u015f M. Ali B\u00fcy\u00fckhanl\u0131 Ticaret Meslek Lisesi"
    }, 
    {
      "lat": "41.04866712425902", 
      "lon": "29.006242362399234", 
      "name": "Be\u015fikta\u015f Ortaokulu"
    }, 
    {
      "lat": "41.04924159508482", 
      "lon": "29.028429595370426", 
      "name": "Be\u015fikta\u015f Rehberlik Ve Ara\u015ft\u0131rma Merkezi"
    }, 
    {
      "lat": "41.05052806789616", 
      "lon": "29.007717577357425", 
      "name": "Be\u015fikta\u015f Sak\u0131p Sabanc\u0131 Anadolu Lisesi"
    }, 
    {
      "lat": "41.051741698433226", 
      "lon": "29.00461694373621", 
      "name": "Bing\u00fcl Erdem Anadolu Lisesi"
    }, 
    {
      "lat": "41.04878444617324", 
      "lon": "29.02184745444788", 
      "name": "Burak Reis \u0130lkokulu"
    }, 
    {
      "lat": "41.04543866674786", 
      "lon": "29.00386056079401", 
      "name": "B\u00fcy\u00fck Esma Sultan Ortaokulu"
    }, 
    {
      "lat": "39.91765128641145", 
      "lon": "32.853463498492374", 
      "name": "Cumhuriyet \u0130lkokulu"
    }, 
    {
      "lat": "39.91765128641145", 
      "lon": "32.853463498492374", 
      "name": "Cumhuriyet Ortaokulu"
    }, 
    {
      "lat": "41.05814120649779", 
      "lon": "29.0051372922851", 
      "name": "Dikilita\u015f Mehmet\u00e7ik \u0130mam Hatip Ortaokulu"
    }, 
    {
      "lat": "41.05158797313679", 
      "lon": "29.0040751375152", 
      "name": "Erhan Gedikba\u015f\u0131 \u00c7ok Programl\u0131 Lisesi"
    }, 
    {
      "lat": "41.077376433477895", 
      "lon": "29.028257933993472", 
      "name": "Etiler Anadolu Lisesi"
    }, 
    {
      "lat": "41.05464622994463", 
      "lon": "29.006961194415226", 
      "name": "Gazi Mustafa Kemal \u0130lkokulu"
    }, 
    {
      "lat": "41.0547918576751", 
      "lon": "29.006789533038273", 
      "name": "Gazi Mustafa Kemal Ortaokulu"
    }, 
    {
      "lat": "41.048869403290894", 
      "lon": "29.02084430827631", 
      "name": "Gazi Osmanpa\u015fa Ortaokulu"
    }, 
    {
      "lat": "41.06470996543459", 
      "lon": "29.007245508570804", 
      "name": "G\u00fclen \u00dcst\u00fcnel Anaokulu"
    }, 
    {
      "lat": "41.05496984668561", 
      "lon": "29.00633892192377", 
      "name": "Halk E\u011fitim Merkezi Ve Ak\u015fam Sanat Okulu"
    }, 
    {
      "lat": "41.06388486179529", 
      "lon": "29.01811918391718", 
      "name": "Hamiyet Ger\u00e7ek \u0130lkokulu"
    }, 
    {
      "lat": "41.08041125120134", 
      "lon": "29.032688943286075", 
      "name": "Hasan Ali Y\u00fccel Ortaokulu"
    }, 
    {
      "lat": "41.06221844444736", 
      "lon": "29.00582393779291", 
      "name": "H\u00fcseyin Aycibin \u0130lkokulu"
    }, 
    {
      "lat": "41.08619137247047", 
      "lon": "29.009182063479557", 
      "name": "\u0130smail Tarman \u0130lkokulu"
    }, 
    {
      "lat": "41.08622371869314", 
      "lon": "29.009257165331974", 
      "name": "\u0130smail Tarman Ortaokulu"
    }, 
    {
      "lat": "41.08681403445916", 
      "lon": "29.02910551204218", 
      "name": "\u0130sov"
    }, 
    {
      "lat": "39.91765128641145", 
      "lon": "32.853463498492374", 
      "name": "K\u0131l\u0131\u00e7 Alipa\u015fa Ortaokulu"
    }, 
    {
      "lat": "41.07634120710744", 
      "lon": "29.02629455699457", 
      "name": "Levent K\u0131z Teknik Ve Meslek Lisesi"
    }, 
    {
      "lat": "41.08044157845272", 
      "lon": "29.01908477916254", 
      "name": "Levent Natuk Birkan Halk E\u011fitimi Merkezi"
    }, 
    {
      "lat": "41.079867380116404", 
      "lon": "29.017260877032413", 
      "name": "L\u00fctfi Banat \u0130lkokulu"
    }, 
    {
      "lat": "41.079964428074824", 
      "lon": "29.01732525004877", 
      "name": "L\u00fctfi Banat Ortaokulu"
    }, 
    {
      "lat": "41.05542290744831", 
      "lon": "29.003485051531925", 
      "name": "Mahmut Erseven \u0130lkokulu"
    }, 
    {
      "lat": "41.04753839584484", 
      "lon": "29.00371303929819", 
      "name": "Milli Saraylar Anaokulu"
    }, 
    {
      "lat": "41.07173101672243", 
      "lon": "29.02781805171503", 
      "name": "Murat Beyaz \u0130lkokulu"
    }, 
    {
      "lat": "41.09498895818186", 
      "lon": "29.013655988116398", 
      "name": "Nimetullah Mahruki Ortaokulu"
    }, 
    {
      "lat": "41.08615902623196", 
      "lon": "29.037667123217716", 
      "name": "Orgeneral Kami G\u00fczey \u0130lkokulu"
    }, 
    {
      "lat": "41.085770870127455", 
      "lon": "29.03858980311884", 
      "name": "Orgeneral Kami G\u00fczey Ortaokulu"
    }, 
    {
      "lat": "41.05355401169072", 
      "lon": "29.028129187960758", 
      "name": "Ortak\u00f6y Hayat \u00d6zel E\u011fitim Uygulama Merkezi I. Kademe"
    }, 
    {
      "lat": "41.05006688242225", 
      "lon": "29.026251641650333", 
      "name": "Ortak\u00f6y Z\u00fcbeyde Han\u0131m K\u0131z Teknik Ve Meslek Lisesi"
    }, 
    {
      "lat": "41.06983831864324", 
      "lon": "29.040413705248966", 
      "name": "Rahmi Kiri\u015f\u00e7io\u011flu \u0130lkokulu"
    }, 
    {
      "lat": "41.08403626951918", 
      "lon": "29.04007038249506", 
      "name": "R\u00fc\u015ft\u00fc Ak\u0131n K\u0131z Teknik Ve Meslek Lisesi"
    }, 
    {
      "lat": "41.079204215232", 
      "lon": "29.02580103053583", 
      "name": "\u015eair Beh\u00e7et Kemal \u00c7a\u011flar \u0130lkokulu"
    }, 
    {
      "lat": "41.07936596338182", 
      "lon": "29.02612289561762", 
      "name": "\u015eair Beh\u00e7et Kemal \u00c7a\u011flar Ortaokulu"
    }, 
    {
      "lat": "41.091318050013925", 
      "lon": "29.013698903460636", 
      "name": "\u015eair Mehmet Emin Yurdakul \u0130lkokulu"
    }, 
    {
      "lat": "41.06323771444214", 
      "lon": "29.009654132266178", 
      "name": "\u015eair Nedim Ortaokulu"
    }, 
    {
      "lat": "41.06386868318909", 
      "lon": "29.035414067645206", 
      "name": "Tabiiyeci Mehmet Emin Erg\u00fcn \u0130lkokulu"
    }, 
    {
      "lat": "41.077534142314185", 
      "lon": "29.041422215838566", 
      "name": "Tevfik Fikret \u0130lkokulu"
    }, 
    {
      "lat": "41.07740878403924", 
      "lon": "29.02831157817377", 
      "name": "Yenilevent Anadolu Lisesi"
    }, 
    {
      "lat": "41.07965710904828", 
      "lon": "29.01709994449152", 
      "name": "Y\u0131ld\u0131z Erten Anaokulu"
    }, 
    {
      "lat": "41.04488843763983", 
      "lon": "29.01835521831049", 
      "name": "Ziya Kalkavan Denizcilik Anadolu  Teknik Lisesi Ve Denizcilik Anadolu Meslek Lisesi"
    }, 
    {
      "lat": "41.06140948876318", 
      "lon": "29.012668935198917", 
      "name": "100 Y\u0131l Mustafa Kemal \u0130lkokulu"
    }, 
    {
      "lat": "41.0614742055841", 
      "lon": "29.012454358477725", 
      "name": "100 Y\u0131l Mustafa Kemal Ortaokulu"
    }, 
    {
      "lat": "41.041591012400474", 
      "lon": "28.999544886489048", 
      "name": "50. Y\u0131l S\u00fcheyla Artam \u0130lkokulu"
    }, 
    {
      "lat": "41.12501962971172", 
      "lon": "29.099057523150577", 
      "name": "Ahmet Mithat Efendi \u0130lkokulu"
    }, 
    {
      "lat": "41.14888077879923", 
      "lon": "29.113562909503116", 
      "name": "Akbaba \u0130smail \u00d6zse\u00e7kin \u0130lkokulu"
    }, 
    {
      "lat": "41.1491393011099", 
      "lon": "29.113648740191593", 
      "name": "Akbaba \u0130smail \u00d6zse\u00e7kin Ortaokulu"
    }, 
    {
      "lat": "41.18011369804051", 
      "lon": "29.20240504815115", 
      "name": "Alibahad\u0131r \u0130lkokulu"
    }, 
    {
      "lat": "41.180283777265636", 
      "lon": "29.20239767207636", 
      "name": "Alibahad\u0131r Ortaokulu"
    }, 
    {
      "lat": "41.07812049236125", 
      "lon": "29.07805046214594", 
      "name": "Anadoluhisar\u0131 Ortaokulu"
    }, 
    {
      "lat": "41.174542223683225", 
      "lon": "29.08824285640253", 
      "name": "Anadolukava\u011f\u0131 Mesadet Taylan \u0130lkokulu"
    }, 
    {
      "lat": "41.17482487171314", 
      "lon": "29.088157025714054", 
      "name": "Anadolukava\u011f\u0131 Mesadet Taylan Ortaokulu"
    }, 
    {
      "lat": "41.0995712412524", 
      "lon": "29.092070368666782", 
      "name": "Atat\u00fcrk \u0130lkokulu"
    }, 
    {
      "lat": "41.099549007743796", 
      "lon": "29.091440049548282", 
      "name": "Atat\u00fcrk Ortaokulu"
    }, 
    {
      "lat": "41.097129552784914", 
      "lon": "29.098309186835422", 
      "name": "Bahattin \u00d6zyaz\u0131c\u0131 \u0130lkokulu"
    }, 
    {
      "lat": "41.12521359208533", 
      "lon": "29.098649827380313", 
      "name": "Barbaros Hayrettin Pa\u015fa Teknik Ve End\u00fcstri Meslek Lisesi, Denizcilik Anadolu Meslek Lisesi,denizcilik Meslek Lisesi"
    }, 
    {
      "lat": "41.15131246398367", 
      "lon": "29.094940332312717", 
      "name": "Beykoz  Bo\u011fazi\u00e7i Anadolu \u0130mam Hatip Lisesi"
    }, 
    {
      "lat": "41.15040362210247", 
      "lon": "29.115896431346073", 
      "name": "Beykoz Akbaba Ticaret Meslek Lisesi"
    }, 
    {
      "lat": "41.09308075839057", 
      "lon": "29.13816413058771", 
      "name": "Beykoz Anadolu Lisesi"
    }, 
    {
      "lat": "41.07506737103643", 
      "lon": "29.069681970019473", 
      "name": "Beykoz Anadoluhisar\u0131 Ticaret Meslek Lisesi"
    }, 
    {
      "lat": "41.14624702467149", 
      "lon": "29.08673009051813", 
      "name": "Beykoz K\u0131z Teknik Ve Meslek Lisesi"
    }, 
    {
      "lat": "41.09201343603136", 
      "lon": "29.138142672915592", 
      "name": "Beykoz Mesleki E\u011fitim Merkezi"
    }, 
    {
      "lat": "41.21570714959248", 
      "lon": "29.15538391246332", 
      "name": "Beykoz \u00d6zel E\u011fitim \u0130\u015f Uygulama Merkezi (Okulu)"
    }, 
    {
      "lat": "41.12967860904697", 
      "lon": "29.097110239405765", 
      "name": "Beykoz \u00d6zel E\u011fitim Mesleki E\u011fitim Merkezi (Okulu)"
    }, 
    {
      "lat": "41.21573943197874", 
      "lon": "29.15542682780756", 
      "name": "Beykoz \u00d6zel E\u011fitim Uygulama Merkezi I. Kademe"
    }, 
    {
      "lat": "41.21568293779233", 
      "lon": "29.15538391246332", 
      "name": "Beykoz \u00d6zel E\u011fitim Uygulama Merkezi I\u0131. Kademe"
    }, 
    {
      "lat": "41.146238945508344", 
      "lon": "29.087084142108097", 
      "name": "Beykoz Rehberlik Ve Ara\u015ft\u0131rma Merkezi"
    }, 
    {
      "lat": "41.13938745683355", 
      "lon": "29.09551700725092", 
      "name": "Beykoz Teknik Ve End\u00fcstri Meslek Lisesi"
    }, 
    {
      "lat": "41.14855762447746", 
      "lon": "29.166971055407657", 
      "name": "Bibi Genceli \u0130lkokulu"
    }, 
    {
      "lat": "41.163320111631194", 
      "lon": "29.27148064746393", 
      "name": "Bozhane \u0130lkokulu"
    }, 
    {
      "lat": "41.163307996042", 
      "lon": "29.271459189791812", 
      "name": "Bozhane Ortaokulu"
    }, 
    {
      "lat": "41.09555898168938", 
      "lon": "29.09472307338251", 
      "name": "Celal Aras Anadolu Lisesi"
    }, 
    {
      "lat": "41.080983422986634", 
      "lon": "29.14120039119257", 
      "name": "\u00c7avu\u015fba\u015f\u0131 Ahmet Ak\u00e7a \u0130lkokulu"
    }, 
    {
      "lat": "41.08078932993576", 
      "lon": "29.141286221881046", 
      "name": "\u00c7avu\u015fba\u015f\u0131 Ahmet Ak\u00e7a Ortaokulu"
    }, 
    {
      "lat": "41.092953408338374", 
      "lon": "29.13744529857172", 
      "name": "\u00c7avu\u015fba\u015f\u0131 Anadolu  \u0130mam Hatip Lisesi"
    }, 
    {
      "lat": "41.09285435812705", 
      "lon": "29.137552586932315", 
      "name": "\u00c7avu\u015fba\u015f\u0131 \u00c7ok Programl\u0131 Lisesi"
    }, 
    {
      "lat": "41.11300092614714", 
      "lon": "29.09699758662714", 
      "name": "\u00c7i\u011fdem \u0130lkokulu"
    }, 
    {
      "lat": "41.10693820308251", 
      "lon": "29.082055000205173", 
      "name": "\u00c7ubuklu \u0130lkokulu"
    }, 
    {
      "lat": "41.07911120986571", 
      "lon": "29.07426318301691", 
      "name": "Defterdar Mehmet Bey \u0130lkokulu"
    }, 
    {
      "lat": "41.13764619204911", 
      "lon": "29.133998659987583", 
      "name": "Elmal\u0131 \u0130lkokulu"
    }, 
    {
      "lat": "41.13766639260163", 
      "lon": "29.133990613360538", 
      "name": "Elmal\u0131 Ortaokulu"
    }, 
    {
      "lat": "41.12478525774528", 
      "lon": "29.101546613116397", 
      "name": "Fatinhoca \u0130lkokulu"
    }, 
    {
      "lat": "41.118885273885866", 
      "lon": "29.107125607867374", 
      "name": "Ferda Ve Turan Takmaz Ortaokulu"
    }, 
    {
      "lat": "41.22307216491793", 
      "lon": "29.217100200791492", 
      "name": "Feride Alpauti \u0130lkokulu"
    }, 
    {
      "lat": "41.14683074157469", 
      "lon": "29.08687224759592", 
      "name": "Fevzi \u00c7akmak Anadolu  Lisesi"
    }, 
    {
      "lat": "41.178386132397215", 
      "lon": "29.23055013789667", 
      "name": "Firuzbey \u0130lkokulu"
    }, 
    {
      "lat": "41.13146049026536", 
      "lon": "29.25406774653925", 
      "name": "Galip \u00d6zt\u00fcrk \u00c7ok Programl\u0131 Lisesi"
    }, 
    {
      "lat": "41.11616948662909", 
      "lon": "29.14746603145136", 
      "name": "G\u00f6rele \u0130lkokulu"
    }, 
    {
      "lat": "41.11610482365822", 
      "lon": "29.147380200762882", 
      "name": "G\u00f6rele Ortaokulu"
    }, 
    {
      "lat": "41.093452699987004", 
      "lon": "29.130793420214786", 
      "name": "G\u00fcndo\u011fdu Nene Hatun \u0130lkokulu"
    }, 
    {
      "lat": "41.09348504263498", 
      "lon": "29.130836335559024", 
      "name": "G\u00fcndo\u011fdu Nene Hatun Ortaokulu"
    }, 
    {
      "lat": "41.08284345232343", 
      "lon": "29.06850179805292", 
      "name": "G\u00fczelcehisar \u0130lkokulu"
    }, 
    {
      "lat": "41.147200358933695", 
      "lon": "29.086869565386905", 
      "name": "Hac\u0131 Numan Ortaokulu"
    }, 
    {
      "lat": "41.11764863469363", 
      "lon": "29.10073122157587", 
      "name": "Halide Edip \u0130lkokulu"
    }, 
    {
      "lat": "41.117818370864214", 
      "lon": "29.10094579829706", 
      "name": "Halide Edip Ortaokulu"
    }, 
    {
      "lat": "41.14617431216734", 
      "lon": "29.087062684435977", 
      "name": "Halk E\u011fitim Merkezi Ve Ak\u015fam Sanat Okulu"
    }, 
    {
      "lat": "41.13545237501871", 
      "lon": "29.089938012499942", 
      "name": "\u0130shaka\u011fa Ortaokulu"
    }, 
    {
      "lat": "41.13763407171458", 
      "lon": "29.299643842120304", 
      "name": "\u0130shakl\u0131 \u0130lkokulu"
    }, 
    {
      "lat": "41.12398515403614", 
      "lon": "29.12346026076807", 
      "name": "Karl\u0131tepe \u0130lkokulu"
    }, 
    {
      "lat": "41.124057891140126", 
      "lon": "29.12343343867792", 
      "name": "Karl\u0131tepe Ortaokulu"
    }, 
    {
      "lat": "41.08763076396634", 
      "lon": "29.075818864245548", 
      "name": "Kavac\u0131k \u0130lkokulu"
    }, 
    {
      "lat": "41.08770354135065", 
      "lon": "29.075818864245548", 
      "name": "Kavac\u0131k Ortaokulu"
    }, 
    {
      "lat": "41.18011420272728", 
      "lon": "29.1588922418548", 
      "name": "Kaynarca Anaokulu"
    }, 
    {
      "lat": "41.15347747655408", 
      "lon": "29.299858418841495", 
      "name": "K\u0131l\u0131\u00e7l\u0131 \u0130lkokulu"
    }, 
    {
      "lat": "41.15245152801753", 
      "lon": "29.190016595263614", 
      "name": "Mahmut \u015eevketpa\u015fa \u0130lkokulu"
    }, 
    {
      "lat": "41.152459606415206", 
      "lon": "29.190005866427555", 
      "name": "Mahmut \u015eevketpa\u015fa Ortaokulu"
    }, 
    {
      "lat": "41.071504542899035", 
      "lon": "29.07753547801508", 
      "name": "Mehmet Emin Pulatkonak \u0130lkokulu"
    }, 
    {
      "lat": "41.071439835949036", 
      "lon": "29.077599851031436", 
      "name": "Mehmet Emin Pulatkonak Ortaokulu"
    }, 
    {
      "lat": "41.20704682413203", 
      "lon": "29.134344664950504", 
      "name": "Oramiral Vural Bayaz\u0131t \u0130lkokulu"
    }, 
    {
      "lat": "41.20697417908892", 
      "lon": "29.134248105425968", 
      "name": "Oramiral Vural Bayaz\u0131t Ortaokulu"
    }, 
    {
      "lat": "41.14396866122462", 
      "lon": "29.146865216632022", 
      "name": "\u00d6rnekk\u00f6y Anaokulu"
    }, 
    {
      "lat": "41.11723641645203", 
      "lon": "29.100591746707096", 
      "name": "Pa\u015fabah\u00e7e Ahmet Ferit \u0130nal Anadolu Lisesi"
    }, 
    {
      "lat": "41.11690502343948", 
      "lon": "29.096793738742008", 
      "name": "Pa\u015fabah\u00e7e \u0130lkokulu"
    }, 
    {
      "lat": "41.116864609543", 
      "lon": "29.09678300990595", 
      "name": "Pa\u015fabah\u00e7e Ortaokulu"
    }, 
    {
      "lat": "41.130296818217424", 
      "lon": "29.254411069293155", 
      "name": "Prof.dr. \u0130brahim Canan  Anadolu \u00d6\u011fretmen Lisesi"
    }, 
    {
      "lat": "41.09449169959321", 
      "lon": "29.099336472888126", 
      "name": "R\u00fczgarl\u0131bah\u00e7e Ortaokulu"
    }, 
    {
      "lat": "41.0806275852888", 
      "lon": "29.065841046710147", 
      "name": "Sabanc\u0131 \u00d6\u011fretmenevi Ve Ak\u015fam S.ok Ve Ak\u015fam Sanat Okulu"
    }, 
    {
      "lat": "41.14606524326001", 
      "lon": "29.08445356561674", 
      "name": "Sadettin G\u00f6k\u00e7ep\u0131nar \u0130lkokulu"
    }, 
    {
      "lat": "41.12709661366238", 
      "lon": "29.158709851641788", 
      "name": "Sait Ta\u015f\u00e7\u0131o\u011flu \u0130lkokulu"
    }, 
    {
      "lat": "41.09802094129627", 
      "lon": "29.07026669158472", 
      "name": "Sedat Simavi \u0130lkokulu"
    }, 
    {
      "lat": "41.09802094129625", 
      "lon": "29.07027205600275", 
      "name": "Sedat Simavi Ortaokulu"
    }, 
    {
      "lat": "41.09105929984952", 
      "lon": "29.084809628863468", 
      "name": "Selahattin Karaka\u015fl\u0131 \u0130mam Hatip Ortaokulu"
    }, 
    {
      "lat": "41.11421340357965", 
      "lon": "29.110108224291934", 
      "name": "So\u011fuksu \u0130lkokulu"
    }, 
    {
      "lat": "41.11420532047093", 
      "lon": "29.110108224291934", 
      "name": "So\u011fuksu Ortaokulu"
    }, 
    {
      "lat": "41.14008637378046", 
      "lon": "29.093821851153507", 
      "name": "\u015eahinkaya \u0130lkokulu"
    }, 
    {
      "lat": "41.150948928743055", 
      "lon": "29.08901533259882", 
      "name": "\u015eehit Ad\u0131l Do\u011fan \u0130lkokulu"
    }, 
    {
      "lat": "41.0805628873186", 
      "lon": "29.08727726115717", 
      "name": "\u015eehit Er Ersin G\u00fcner \u0130lkokulu"
    }, 
    {
      "lat": "41.08057906181712", 
      "lon": "29.087341634173526", 
      "name": "\u015eehit Er Ersin G\u00fcner Ortaokulu"
    }, 
    {
      "lat": "41.144146408737576", 
      "lon": "29.14692958964838", 
      "name": "Tepetarla \u0130lkokulu"
    }, 
    {
      "lat": "41.14409793219091", 
      "lon": "29.1469510473205", 
      "name": "Tepetarla Ortaokulu"
    }, 
    {
      "lat": "41.15832426040208", 
      "lon": "29.096042720217838", 
      "name": "Tokatk\u00f6y \u0130lkokulu"
    }, 
    {
      "lat": "41.15832426040216", 
      "lon": "29.096053449053897", 
      "name": "Tokatk\u00f6y Ortaokulu"
    }, 
    {
      "lat": "41.06538945477604", 
      "lon": "29.145577756304874", 
      "name": "T\u00fcrker \u0130nano\u011flu \u0130lkokulu"
    }, 
    {
      "lat": "41.06532474180786", 
      "lon": "29.145749417681827", 
      "name": "T\u00fcrker \u0130nano\u011flu Ortaokulu"
    }, 
    {
      "lat": "41.08234205829353", 
      "lon": "29.158366528887882", 
      "name": "Yavuz Selim Anaokulu"
    }, 
    {
      "lat": "41.082293536087604", 
      "lon": "29.158345071215763", 
      "name": "Zafer Sar\u0131yer \u0130lkokulu"
    }, 
    {
      "lat": "41.082293536087626", 
      "lon": "29.158345071215763", 
      "name": "Zafer Sar\u0131yer Ortaokulu"
    }, 
    {
      "lat": "41.132397877738434", 
      "lon": "29.095795956988468", 
      "name": "Ziya \u00dcnsel Ortaokulu"
    }, 
    {
      "lat": "41.11598863222234", 
      "lon": "29.147306440014972", 
      "name": "Z\u00fcbeyde Han\u0131m Anaokulu"
    }, 
    {
      "lat": "41.13042611613087", 
      "lon": "29.254411069293155", 
      "name": "75 Y\u0131l Cumhuriyet \u0130lkokulu"
    }, 
    {
      "lat": "41.130393791676404", 
      "lon": "29.254411069293155", 
      "name": "75 Y\u0131l Cumhuriyet Ortaokulu"
    }, 
    {
      "lat": "40.978993592360176", 
      "lon": "28.60961875094904", 
      "name": "Baki G\u00fcnd\u00fcz \u0130lkokulu"
    }, 
    {
      "lat": "39.91765128641145", 
      "lon": "32.853463498492374", 
      "name": "Baki G\u00fcnd\u00fcz \u0130lk\u00f6\u011fretim Okulu"
    }, 
    {
      "lat": "40.98787637899417", 
      "lon": "28.666854409117832", 
      "name": "Be\u015fir Balc\u0131o\u011flu Anadolu Lisesi"
    }, 
    {
      "lat": "41.002992790584365", 
      "lon": "28.654368726153507", 
      "name": "Beykoop 2. B\u00f6lge Dr.haydar Aslan \u0130lkokulu"
    }, 
    {
      "lat": "39.91765128641145", 
      "lon": "32.853463498492374", 
      "name": "Beylikd\u00fcz\u00fc Abidin Nesimi Fatino\u011flu Teknik Ve End\u00fcstri Meslek Lisesi"
    }, 
    {
      "lat": "41.00854695287293", 
      "lon": "28.63660177363886", 
      "name": "Beylikd\u00fcz\u00fc Atat\u00fcrk \u00d6\u011fretmenevi"
    }, 
    {
      "lat": "40.97755587365137", 
      "lon": "28.66300543918146", 
      "name": "Beylikd\u00fcz\u00fc Azem Y\u00fckselo\u011flu Anadolu \u0130mam Hatip Lisesi"
    }, 
    {
      "lat": "41.00692771192132", 
      "lon": "28.640378323931827", 
      "name": "Beylikd\u00fcz\u00fc Cahit Zarifo\u011flu Anadolu Lisesi"
    }, 
    {
      "lat": "40.982107867112795", 
      "lon": "28.676931468386783", 
      "name": "Beylikd\u00fcz\u00fc \u00c7ok Programl\u0131 Lisesi"
    }, 
    {
      "lat": "41.00704106008312", 
      "lon": "28.63977750911249", 
      "name": "Beylikd\u00fcz\u00fc Haldun Taner \u0130lkokulu"
    }, 
    {
      "lat": "41.00657147357207", 
      "lon": "28.640721646685733", 
      "name": "Beylikd\u00fcz\u00fc Halk E\u011fitimi Merkezi"
    }, 
    {
      "lat": "41.004968377167955", 
      "lon": "28.65555962695612", 
      "name": "Beylikd\u00fcz\u00fc \u0130mkb Ortaokulu"
    }, 
    {
      "lat": "41.00229646316485", 
      "lon": "28.645141927142276", 
      "name": "Beylikd\u00fcz\u00fc Mehmet Geso\u011flu \u0130lk\u00f6\u011fretim Okulu"
    },